$GPZDA,235942.00,07,03,2018,00,00*62
$GPGGA,235942.00,5445.5068028,N,00628.3679718,W,2,16,0.67,73.5394,M,0.0,M,0.0,*59
$GPGGA,235943.00,5445.5068179,N,00628.3678600,W,2,16,0.67,73.5865,M,0.0,M,0.0,*51
$GPGGA,235944.00,5445.5068410,N,00628.3678172,W,2,16,0.67,73.6576,M,0.0,M,0.0,*52
$GPGGA,235945.00,5445.5068791,N,00628.3678065,W,2,16,0.67,73.7185,M,0.0,M,0.0,*57
$GPGGA,235946.00,5445.5069154,N,00628.3677446,W,2,16,0.67,73.7760,M,0.0,M,0.0,*5D
$GPGGA,235947.00,5445.5069454,N,00628.3676894,W,2,16,0.67,73.8229,M,0.0,M,0.0,*5C
$GPGGA,235948.00,5445.5069747,N,00628.3676490,W,2,16,0.67,73.8368,M,0.0,M,0.0,*5E
$GPGGA,235949.00,5445.5069745,N,00628.3676444,W,2,16,0.67,73.8634,M,0.0,M,0.0,*58
$GPGGA,235950.00,5445.5069738,N,00628.3676511,W,2,16,0.67,73.8568,M,0.0,M,0.0,*51
$GPGGA,235951.00,5445.5069715,N,00628.3676567,W,2,16,0.67,73.8653,M,0.0,M,0.0,*55
$GPGGA,235952.00,5445.5069978,N,00628.3676859,W,2,16,0.67,73.9040,M,0.0,M,0.0,*56
$GPGGA,235953.00,5445.5070516,N,00628.3677186,W,2,16,0.67,73.9715,M,0.0,M,0.0,*56
$GPGGA,235954.00,5445.5071209,N,00628.3677338,W,2,16,0.67,74.0538,M,0.0,M,0.0,*5D
$GPGGA,235955.00,5445.5071768,N,00628.3677532,W,2,16,0.67,74.1501,M,0.0,M,0.0,*59
$GPGGA,235956.00,5445.5072322,N,00628.3677484,W,2,16,0.67,74.2611,M,0.0,M,0.0,*5E
$GPGGA,235957.00,5445.5072669,N,00628.3677627,W,2,16,0.67,74.3398,M,0.0,M,0.0,*5B
$GPGGA,235958.00,5445.5072950,N,00628.3677921,W,2,16,0.67,74.3958,M,0.0,M,0.0,*5E
$GPGGA,235959.00,5445.5073189,N,00628.3678110,W,2,16,0.67,74.4732,M,0.0,M,0.0,*52
$GPGGA,000000.00,5445.5073290,N,00628.3678180,W,2,16,0.67,74.5664,M,0.0,M,0.0,*52
$GPGGA,000001.00,5445.5073248,N,00628.3678186,W,2,16,0.67,74.6566,M,0.0,M,0.0,*52
$GPGGA,000002.00,5445.5073201,N,00628.3678107,W,2,16,0.67,74.7094,M,0.0,M,0.0,*5C
$GPGGA,000003.00,5445.5073032,N,00628.3677894,W,2,16,0.67,74.7354,M,0.0,M,0.0,*5C
$GPGGA,000004.00,5445.5072804,N,00628.3677909,W,2,16,0.67,74.7256,M,0.0,M,0.0,*51
$GPGGA,000005.00,5445.5072473,N,00628.3677899,W,2,16,0.67,74.6749,M,0.0,M,0.0,*5E
$GPGGA,000006.00,5445.5072078,N,00628.3678011,W,2,16,0.67,74.6216,M,0.0,M,0.0,*5A
$GPGGA,000007.00,5445.5071734,N,00628.3677995,W,2,16,0.67,74.5678,M,0.0,M,0.0,*52
$GPGGA,000008.00,5445.5071362,N,00628.3677916,W,2,16,0.67,74.5672,M,0.0,M,0.0,*5B
$GPGGA,000009.00,5445.5071126,N,00628.3677811,W,2,16,0.67,74.5924,M,0.0,M,0.0,*52
$GPGGA,000010.00,5445.5070923,N,00628.3677747,W,2,16,0.67,74.6310,M,0.0,M,0.0,*54
$GPGGA,000011.00,5445.5070778,N,00628.3677603,W,2,16,0.67,74.6748,M,0.0,M,0.0,*5D
$GPGGA,000012.00,5445.5070505,N,00628.3677503,W,2,16,0.67,74.6610,M,0.0,M,0.0,*59
$GPGGA,000013.00,5445.5070193,N,00628.3677348,W,2,16,0.67,74.6350,M,0.0,M,0.0,*5B
$GPGGA,000014.00,5445.5070071,N,00628.3677178,W,2,16,0.67,74.6364,M,0.0,M,0.0,*57
$GPGGA,000015.00,5445.5070020,N,00628.3677110,W,2,16,0.67,74.6495,M,0.0,M,0.0,*55
$GPGGA,000016.00,5445.5069997,N,00628.3677251,W,2,16,0.67,74.6664,M,0.0,M,0.0,*51
$GPGGA,000017.00,5445.5070104,N,00628.3677520,W,2,16,0.67,74.7239,M,0.0,M,0.0,*56
$GPGGA,000018.00,5445.5070096,N,00628.3677700,W,2,16,0.67,74.8077,M,0.0,M,0.0,*54
$GPGGA,000019.00,5445.5070170,N,00628.3677793,W,2,16,0.67,74.9156,M,0.0,M,0.0,*55
$GPGGA,000020.00,5445.5070081,N,00628.3677814,W,2,16,0.67,74.9851,M,0.0,M,0.0,*5E
$GPGGA,000021.00,5445.5069947,N,00628.3677569,W,2,16,0.67,75.0167,M,0.0,M,0.0,*57
$GPGGA,000022.00,5445.5069776,N,00628.3677384,W,2,16,0.67,75.0345,M,0.0,M,0.0,*5F
$GPGGA,000023.00,5445.5069744,N,00628.3677311,W,2,16,0.67,75.0767,M,0.0,M,0.0,*57
$GPGGA,000024.00,5445.5069839,N,00628.3677377,W,2,16,0.67,75.1056,M,0.0,M,0.0,*51
$GPGGA,000025.00,5445.5069900,N,00628.3677452,W,2,16,0.67,75.1327,M,0.0,M,0.0,*5E
$GPGGA,000026.00,5445.5069911,N,00628.3677426,W,2,16,0.67,75.1460,M,0.0,M,0.0,*5A
$GPGGA,000027.00,5445.5070002,N,00628.3677279,W,2,16,0.67,75.1867,M,0.0,M,0.0,*5F
$GPGGA,000028.00,5445.5070022,N,00628.3677248,W,2,16,0.67,75.2697,M,0.0,M,0.0,*52
$GPGGA,000029.00,5445.5069988,N,00628.3677194,W,2,16,0.67,75.3435,M,0.0,M,0.0,*5B
$GPGGA,000030.00,5445.5069955,N,00628.3677285,W,2,16,0.67,75.4537,M,0.0,M,0.0,*54
$GPGGA,000031.00,5445.5069992,N,00628.3677362,W,2,16,0.67,75.5583,M,0.0,M,0.0,*58
$GPGGA,000032.00,5445.5070000,N,00628.3677517,W,2,16,0.67,75.6434,M,0.0,M,0.0,*5B
$GPGGA,000033.00,5445.5070080,N,00628.3677576,W,2,16,0.67,75.7547,M,0.0,M,0.0,*51
$GPGGA,000034.00,5445.5070108,N,00628.3677533,W,2,16,0.67,75.8349,M,0.0,M,0.0,*51
$GPGGA,000035.00,5445.5070079,N,00628.3677538,W,2,16,0.67,75.8962,M,0.0,M,0.0,*5F
$GPGGA,000036.00,5445.5070056,N,00628.3677463,W,2,16,0.67,75.9461,M,0.0,M,0.0,*51
$GPGGA,000037.00,5445.5069988,N,00628.3677331,W,2,16,0.67,75.9743,M,0.0,M,0.0,*51
$GPGGA,000038.00,5445.5069975,N,00628.3677168,W,2,16,0.67,75.9837,M,0.0,M,0.0,*5E
$GPGGA,000039.00,5445.5069997,N,00628.3677112,W,2,16,0.67,75.9974,M,0.0,M,0.0,*58
$GPGGA,000040.00,5445.5069994,N,00628.3677174,W,2,16,0.67,76.0151,M,0.0,M,0.0,*50
$GPGGA,000041.00,5445.5069958,N,00628.3677146,W,2,16,0.67,76.0044,M,0.0,M,0.0,*55
$GPGGA,000042.00,5445.5069843,N,00628.3677233,W,2,16,0.67,75.9775,M,0.0,M,0.0,*53
$GPGGA,000043.00,5445.5069705,N,00628.3677388,W,2,16,0.67,75.9475,M,0.0,M,0.0,*5D
$GPGGA,000044.00,5445.5069650,N,00628.3677614,W,2,16,0.67,75.9273,M,0.0,M,0.0,*5B
$GPGGA,000045.00,5445.5069624,N,00628.3677703,W,2,16,0.67,75.9053,M,0.0,M,0.0,*5E
$GPGGA,000046.00,5445.5069504,N,00628.3677830,W,2,16,0.67,75.9168,M,0.0,M,0.0,*5A
$GPGGA,000047.00,5445.5069536,N,00628.3677859,W,2,16,0.67,75.9087,M,0.0,M,0.0,*55
$GPGGA,000048.00,5445.5069581,N,00628.3677910,W,2,16,0.67,75.9075,M,0.0,M,0.0,*57
$GPGGA,000049.00,5445.5069697,N,00628.3677985,W,2,16,0.67,75.8972,M,0.0,M,0.0,*51
$GPGGA,000050.00,5445.5069786,N,00628.3678053,W,2,16,0.67,75.8897,M,0.0,M,0.0,*5F
$GPGGA,000051.00,5445.5069782,N,00628.3678109,W,2,16,0.67,75.8882,M,0.0,M,0.0,*50
$GPGGA,000052.00,5445.5069802,N,00628.3678000,W,2,16,0.67,75.8711,M,0.0,M,0.0,*59
$GPGGA,000053.00,5445.5069807,N,00628.3677935,W,2,16,0.67,75.8824,M,0.0,M,0.0,*54
$GPGGA,000054.00,5445.5069966,N,00628.3677873,W,2,16,0.67,75.8890,M,0.0,M,0.0,*59
$GPGGA,000055.00,5445.5070148,N,00628.3677971,W,2,16,0.67,75.8959,M,0.0,M,0.0,*53
$GPGGA,000056.00,5445.5070328,N,00628.3678163,W,2,16,0.67,75.8969,M,0.0,M,0.0,*53
$GPGGA,000057.00,5445.5070460,N,00628.3678243,W,2,16,0.67,75.8729,M,0.0,M,0.0,*52
$GPGGA,000058.00,5445.5070571,N,00628.3678301,W,2,16,0.67,75.8384,M,0.0,M,0.0,*58
$GPGGA,000059.00,5445.5070649,N,00628.3678315,W,2,16,0.67,75.8143,M,0.0,M,0.0,*5D
$GPGGA,000100.00,5445.5070658,N,00628.3678308,W,2,16,0.67,75.8185,M,0.0,M,0.0,*56
$GPGGA,000101.00,5445.5070703,N,00628.3678241,W,2,16,0.67,75.8137,M,0.0,M,0.0,*5D
$GPGGA,000102.00,5445.5070703,N,00628.3678187,W,2,16,0.67,75.8262,M,0.0,M,0.0,*54
$GPGGA,000103.00,5445.5070726,N,00628.3678178,W,2,16,0.67,75.8571,M,0.0,M,0.0,*57
$GPGGA,000104.00,5445.5070677,N,00628.3678232,W,2,16,0.67,75.9093,M,0.0,M,0.0,*50
$GPGGA,000105.00,5445.5070665,N,00628.3678228,W,2,16,0.67,75.9611,M,0.0,M,0.0,*55
$GPGGA,000106.00,5445.5070591,N,00628.3678246,W,2,16,0.67,75.9992,M,0.0,M,0.0,*52
$GPGGA,000107.00,5445.5070545,N,00628.3678269,W,2,16,0.67,76.0220,M,0.0,M,0.0,*5F
$GPGGA,000108.00,5445.5070499,N,00628.3678419,W,2,16,0.67,76.0428,M,0.0,M,0.0,*5F
$GPGGA,000109.00,5445.5070535,N,00628.3678662,W,2,16,0.67,76.0648,M,0.0,M,0.0,*53
$GPGGA,000110.00,5445.5070558,N,00628.3678831,W,2,16,0.67,76.0812,M,0.0,M,0.0,*59
$GPGGA,000111.00,5445.5070577,N,00628.3678894,W,2,16,0.67,76.0883,M,0.0,M,0.0,*52
$GPGGA,000112.00,5445.5070546,N,00628.3678938,W,2,16,0.67,76.0681,M,0.0,M,0.0,*58
$GPGGA,000113.00,5445.5070523,N,00628.3679003,W,2,16,0.67,76.0458,M,0.0,M,0.0,*5C
$GPGGA,000114.00,5445.5070475,N,00628.3679093,W,2,16,0.67,76.0498,M,0.0,M,0.0,*5C
$GPGGA,000115.00,5445.5070433,N,00628.3679130,W,2,16,0.67,76.0778,M,0.0,M,0.0,*5A
$GPGGA,000116.00,5445.5070412,N,00628.3679228,W,2,16,0.67,76.1015,M,0.0,M,0.0,*5D
$GPGGA,000117.00,5445.5070344,N,00628.3679295,W,2,16,0.67,76.1291,M,0.0,M,0.0,*50
$GPGGA,000118.00,5445.5070300,N,00628.3679432,W,2,16,0.67,76.1349,M,0.0,M,0.0,*50
$GPGGA,000119.00,5445.5070222,N,00628.3679584,W,2,16,0.67,76.1347,M,0.0,M,0.0,*52
$GPGGA,000120.00,5445.5070183,N,00628.3679757,W,2,16,0.67,76.1349,M,0.0,M,0.0,*52
$GPGGA,000121.00,5445.5070194,N,00628.3679947,W,2,16,0.67,76.1311,M,0.0,M,0.0,*57
$GPGGA,000122.00,5445.5070216,N,00628.3680151,W,2,16,0.67,76.1288,M,0.0,M,0.0,*55
$GPGGA,000123.00,5445.5070248,N,00628.3680375,W,2,16,0.67,76.1284,M,0.0,M,0.0,*57
$GPGGA,000124.00,5445.5070312,N,00628.3680513,W,2,16,0.67,76.1136,M,0.0,M,0.0,*52
$GPGGA,000125.00,5445.5070342,N,00628.3680597,W,2,16,0.67,76.0972,M,0.0,M,0.0,*53
$GPGGA,000126.00,5445.5070389,N,00628.3680658,W,2,16,0.67,76.0752,M,0.0,M,0.0,*5B
$GPGGA,000127.00,5445.5070421,N,00628.3680691,W,2,16,0.67,76.0468,M,0.0,M,0.0,*50
$GPGGA,000128.00,5445.5070438,N,00628.3680692,W,2,16,0.67,76.0209,M,0.0,M,0.0,*55
$GPGGA,000129.00,5445.5070429,N,00628.3680674,W,2,16,0.67,76.0093,M,0.0,M,0.0,*5D
$GPGGA,000130.00,5445.5070415,N,00628.3680611,W,2,16,0.67,75.9952,M,0.0,M,0.0,*57
$GPGGA,000131.00,5445.5070398,N,00628.3680567,W,2,16,0.67,75.9904,M,0.0,M,0.0,*55
$GPGGA,000132.00,5445.5070375,N,00628.3680490,W,2,16,0.67,75.9813,M,0.0,M,0.0,*5B
$GPGGA,000133.00,5445.5070349,N,00628.3680415,W,2,16,0.67,75.9556,M,0.0,M,0.0,*54
$GPGGA,000134.00,5445.5070318,N,00628.3680354,W,2,16,0.67,75.9315,M,0.0,M,0.0,*54
$GPGGA,000135.00,5445.5070327,N,00628.3680336,W,2,16,0.67,75.9132,M,0.0,M,0.0,*5A
$GPGGA,000136.00,5445.5070369,N,00628.3680361,W,2,16,0.67,75.8928,M,0.0,M,0.0,*53
$GPGGA,000137.00,5445.5070379,N,00628.3680371,W,2,16,0.67,75.8792,M,0.0,M,0.0,*5D
$GPGGA,000138.00,5445.5070365,N,00628.3680313,W,2,16,0.67,75.8615,M,0.0,M,0.0,*55
$GPGGA,000139.00,5445.5070317,N,00628.3680219,W,2,16,0.67,75.8462,M,0.0,M,0.0,*58
$GPGGA,000140.00,5445.5070234,N,00628.3680171,W,2,16,0.67,75.8356,M,0.0,M,0.0,*5B
$GPGGA,000141.00,5445.5070169,N,00628.3680102,W,2,16,0.67,75.8358,M,0.0,M,0.0,*5B
$GPGGA,000142.00,5445.5070134,N,00628.3680081,W,2,16,0.67,75.8380,M,0.0,M,0.0,*5F
$GPGGA,000143.00,5445.5070137,N,00628.3680145,W,2,16,0.67,75.8584,M,0.0,M,0.0,*56
$GPGGA,000144.00,5445.5070135,N,00628.3680263,W,2,16,0.67,75.8893,M,0.0,M,0.0,*5F
$GPGGA,000145.00,5445.5070140,N,00628.3680361,W,2,16,0.67,75.9074,M,0.0,M,0.0,*5F
$GPGGA,000146.00,5445.5070102,N,00628.3680395,W,2,16,0.67,75.9155,M,0.0,M,0.0,*53
$GPGGA,000147.00,5445.5070054,N,00628.3680311,W,2,16,0.67,75.9004,M,0.0,M,0.0,*59
$GPGGA,000148.00,5445.5069952,N,00628.3680167,W,2,16,0.67,75.8803,M,0.0,M,0.0,*5C
$GPGGA,000149.00,5445.5069866,N,00628.3680116,W,2,16,0.67,75.8550,M,0.0,M,0.0,*56
$GPGGA,000150.00,5445.5069850,N,00628.3680198,W,2,16,0.67,75.8340,M,0.0,M,0.0,*5A
$GPGGA,000151.00,5445.5069871,N,00628.3680371,W,2,16,0.67,75.8258,M,0.0,M,0.0,*55
$GPGGA,000152.00,5445.5069897,N,00628.3680581,W,2,16,0.67,75.8300,M,0.0,M,0.0,*5B
$GPGGA,000153.00,5445.5069906,N,00628.3680786,W,2,16,0.67,75.8328,M,0.0,M,0.0,*5C
$GPGGA,000154.00,5445.5069892,N,00628.3680921,W,2,16,0.67,75.8281,M,0.0,M,0.0,*56
$GPGGA,000155.00,5445.5069861,N,00628.3681017,W,2,16,0.67,75.8249,M,0.0,M,0.0,*52
$GPGGA,000156.00,5445.5069804,N,00628.3681051,W,2,16,0.67,75.8205,M,0.0,M,0.0,*58
$GPGGA,000157.00,5445.5069735,N,00628.3681029,W,2,16,0.67,75.8187,M,0.0,M,0.0,*52
$GPGGA,000158.00,5445.5069690,N,00628.3680989,W,2,16,0.67,75.8193,M,0.0,M,0.0,*54
$GPGGA,000159.00,5445.5069665,N,00628.3680988,W,2,16,0.67,75.8252,M,0.0,M,0.0,*50
$GPGGA,000200.00,5445.5069651,N,00628.3681065,W,2,16,0.67,75.8284,M,0.0,M,0.0,*58
$GPGGA,000201.00,5445.5069665,N,00628.3681158,W,2,16,0.67,75.8292,M,0.0,M,0.0,*56
$GPGGA,000202.00,5445.5069657,N,00628.3681240,W,2,16,0.67,75.8245,M,0.0,M,0.0,*54
$GPGGA,000203.00,5445.5069664,N,00628.3681312,W,2,16,0.67,75.8136,M,0.0,M,0.0,*54
$GPGGA,000204.00,5445.5069654,N,00628.3681383,W,2,16,0.67,75.8091,M,0.0,M,0.0,*54
$GPGGA,000205.00,5445.5069648,N,00628.3681434,W,2,16,0.67,75.8030,M,0.0,M,0.0,*58
$GPGGA,000206.00,5445.5069633,N,00628.3681507,W,2,16,0.67,75.7978,M,0.0,M,0.0,*5C
$GPGGA,000207.00,5445.5069614,N,00628.3681586,W,2,16,0.67,75.8083,M,0.0,M,0.0,*53
$GPGGA,000208.00,5445.5069624,N,00628.3681680,W,2,16,0.67,75.8188,M,0.0,M,0.0,*50
$GPGGA,000209.00,5445.5069619,N,00628.3681788,W,2,16,0.67,75.8354,M,0.0,M,0.0,*55
$GPGGA,000210.00,5445.5069630,N,00628.3681870,W,2,16,0.67,75.8394,M,0.0,M,0.0,*52
$GPGGA,000211.00,5445.5069627,N,00628.3681936,W,2,16,0.67,75.8447,M,0.0,M,0.0,*5F
$GPGGA,000212.00,5445.5069614,N,00628.3681971,W,2,16,0.67,75.8465,M,0.0,M,0.0,*5F
$GPGGA,000213.00,5445.5069590,N,00628.3682003,W,2,16,0.67,75.8587,M,0.0,M,0.0,*53
$GPGGA,000214.00,5445.5069567,N,00628.3682007,W,2,16,0.67,75.8624,M,0.0,M,0.0,*52
$GPGGA,000215.00,5445.5069548,N,00628.3682042,W,2,16,0.67,75.8611,M,0.0,M,0.0,*59
$GPGGA,000216.00,5445.5069556,N,00628.3682116,W,2,16,0.67,75.8550,M,0.0,M,0.0,*53
$GPGGA,000217.00,5445.5069569,N,00628.3682190,W,2,16,0.67,75.8509,M,0.0,M,0.0,*5C
$GPGGA,000218.00,5445.5069587,N,00628.3682285,W,2,16,0.67,75.8471,M,0.0,M,0.0,*5A
$GPGGA,000219.00,5445.5069576,N,00628.3682327,W,2,16,0.67,75.8429,M,0.0,M,0.0,*51
$GPGGA,000220.00,5445.5069558,N,00628.3682387,W,2,16,0.67,75.8325,M,0.0,M,0.0,*56
$GPGGA,000221.00,5445.5069545,N,00628.3682383,W,2,16,0.67,75.8166,M,0.0,M,0.0,*5A
$GPGGA,000222.00,5445.5069534,N,00628.3682320,W,2,16,0.67,75.7979,M,0.0,M,0.0,*5F
$GPGGA,000223.00,5445.5069530,N,00628.3682257,W,2,16,0.67,75.7813,M,0.0,M,0.0,*56
$GPGGA,000224.00,5445.5069536,N,00628.3682231,W,2,16,0.67,75.7667,M,0.0,M,0.0,*5A
$GPGGA,000225.00,5445.5069538,N,00628.3682203,W,2,16,0.67,75.7527,M,0.0,M,0.0,*53
$GPGGA,000226.00,5445.5069527,N,00628.3682151,W,2,16,0.67,75.7401,M,0.0,M,0.0,*5F
$GPGGA,000227.00,5445.5069508,N,00628.3682090,W,2,16,0.67,75.7349,M,0.0,M,0.0,*54
$GPGGA,000228.00,5445.5069479,N,00628.3682056,W,2,16,0.67,75.7355,M,0.0,M,0.0,*5B
$GPGGA,000229.00,5445.5069476,N,00628.3682059,W,2,16,0.67,75.7338,M,0.0,M,0.0,*51
$GPGGA,000230.00,5445.5069495,N,00628.3682094,W,2,16,0.67,75.7329,M,0.0,M,0.0,*55
$GPGGA,000231.00,5445.5069524,N,00628.3682166,W,2,16,0.67,75.7327,M,0.0,M,0.0,*5D
$GPGGA,000232.00,5445.5069558,N,00628.3682267,W,2,16,0.67,75.7363,M,0.0,M,0.0,*57
$GPGGA,000233.00,5445.5069583,N,00628.3682378,W,2,16,0.67,75.7394,M,0.0,M,0.0,*57
$GPGGA,000234.00,5445.5069624,N,00628.3682471,W,2,16,0.67,75.7388,M,0.0,M,0.0,*5D
$GPGGA,000235.00,5445.5069667,N,00628.3682547,W,2,16,0.67,75.7381,M,0.0,M,0.0,*56
$GPGGA,000236.00,5445.5069711,N,00628.3682659,W,2,16,0.67,75.7361,M,0.0,M,0.0,*57
$GPGGA,000237.00,5445.5069749,N,00628.3682750,W,2,16,0.67,75.7350,M,0.0,M,0.0,*51
$GPGGA,000238.00,5445.5069764,N,00628.3682809,W,2,16,0.67,75.7348,M,0.0,M,0.0,*5B
$GPGGA,000239.00,5445.5069771,N,00628.3682815,W,2,16,0.67,75.7337,M,0.0,M,0.0,*5B
$GPGGA,000240.00,5445.5069772,N,00628.3682827,W,2,16,0.67,75.7347,M,0.0,M,0.0,*50
$GPGGA,000241.00,5445.5069780,N,00628.3682834,W,2,16,0.67,75.7379,M,0.0,M,0.0,*53
$GPGGA,000242.00,5445.5069798,N,00628.3682864,W,2,16,0.67,75.7388,M,0.0,M,0.0,*52
$GPGGA,000243.00,5445.5069822,N,00628.3682893,W,2,16,0.67,75.7403,M,0.0,M,0.0,*51
$GPGGA,000244.00,5445.5069842,N,00628.3682943,W,2,16,0.67,75.7352,M,0.0,M,0.0,*5F
$GPGGA,000245.00,5445.5069879,N,00628.3682968,W,2,16,0.67,75.7248,M,0.0,M,0.0,*55
$GPGGA,000246.00,5445.5069904,N,00628.3682989,W,2,16,0.67,75.7136,M,0.0,M,0.0,*58
$GPGGA,000247.00,5445.5069923,N,00628.3683011,W,2,16,0.67,75.7073,M,0.0,M,0.0,*55
$GPGGA,000248.00,5445.5069942,N,00628.3683051,W,2,16,0.67,75.7003,M,0.0,M,0.0,*5E
$GPGGA,000249.00,5445.5069958,N,00628.3683106,W,2,16,0.67,75.6955,M,0.0,M,0.0,*5C
$GPGGA,000250.00,5445.5069968,N,00628.3683221,W,2,16,0.67,75.6946,M,0.0,M,0.0,*53
$GPGGA,000251.00,5445.5069978,N,00628.3683344,W,2,16,0.67,75.6952,M,0.0,M,0.0,*54
$GPGGA,000252.00,5445.5069985,N,00628.3683451,W,2,16,0.67,75.6956,M,0.0,M,0.0,*52
$GPGGA,000253.00,5445.5069983,N,00628.3683564,W,2,16,0.67,75.6940,M,0.0,M,0.0,*55
$GPGGA,000254.00,5445.5069979,N,00628.3683682,W,2,16,0.67,75.6853,M,0.0,M,0.0,*5F
$GPGGA,000255.00,5445.5069979,N,00628.3683839,W,2,16,0.67,75.6731,M,0.0,M,0.0,*5B
$GPGGA,000256.00,5445.5069980,N,00628.3683984,W,2,16,0.67,75.6629,M,0.0,M,0.0,*51
$GPGGA,000257.00,5445.5069979,N,00628.3684099,W,2,16,0.67,75.6588,M,0.0,M,0.0,*5C
$GPGGA,000258.00,5445.5069977,N,00628.3684191,W,2,16,0.67,75.6539,M,0.0,M,0.0,*5E
$GPGGA,000259.00,5445.5069970,N,00628.3684287,W,2,16,0.67,75.6530,M,0.0,M,0.0,*55
$GPGGA,000300.00,5445.5069963,N,00628.3684368,W,2,16,0.67,75.6513,M,0.0,M,0.0,*5B
$GPGGA,000301.00,5445.5069960,N,00628.3684440,W,2,16,0.67,75.6479,M,0.0,M,0.0,*59
$GPGGA,000302.00,5445.5069954,N,00628.3684499,W,2,16,0.67,75.6435,M,0.0,M,0.0,*51
$GPGGA,000303.00,5445.5069939,N,00628.3684550,W,2,16,0.67,75.6433,M,0.0,M,0.0,*59
$GPGGA,000304.00,5445.5069930,N,00628.3684570,W,2,16,0.67,75.6436,M,0.0,M,0.0,*50
$GPGGA,000305.00,5445.5069935,N,00628.3684619,W,2,16,0.67,75.6463,M,0.0,M,0.0,*58
$GPGGA,000306.00,5445.5069932,N,00628.3684676,W,2,16,0.67,75.6517,M,0.0,M,0.0,*57
$GPGGA,000307.00,5445.5069916,N,00628.3684748,W,2,16,0.67,75.6591,M,0.0,M,0.0,*52
$GPGGA,000308.00,5445.5069902,N,00628.3684799,W,2,16,0.67,75.6664,M,0.0,M,0.0,*5D
$GPGGA,000309.00,5445.5069886,N,00628.3684815,W,2,16,0.67,75.6761,M,0.0,M,0.0,*5E
$GPGGA,000310.00,5445.5069866,N,00628.3684813,W,2,16,0.67,75.6860,M,0.0,M,0.0,*50
$GPGGA,000311.00,5445.5069845,N,00628.3684777,W,2,16,0.67,75.6943,M,0.0,M,0.0,*5D
$GPGGA,000312.00,5445.5069836,N,00628.3684768,W,2,16,0.67,75.7048,M,0.0,M,0.0,*57
$GPGGA,000313.00,5445.5069821,N,00628.3684792,W,2,16,0.67,75.7224,M,0.0,M,0.0,*5D
$GPGGA,000314.00,5445.5069830,N,00628.3684843,W,2,16,0.67,75.7319,M,0.0,M,0.0,*56
$GPGGA,000315.00,5445.5069837,N,00628.3684895,W,2,16,0.67,75.7381,M,0.0,M,0.0,*5A
$GPGGA,000316.00,5445.5069838,N,00628.3684931,W,2,16,0.67,75.7431,M,0.0,M,0.0,*55
$GPGGA,000317.00,5445.5069844,N,00628.3684957,W,2,16,0.67,75.7427,M,0.0,M,0.0,*58
$GPGGA,000318.00,5445.5069847,N,00628.3684961,W,2,16,0.67,75.7437,M,0.0,M,0.0,*50
$GPGGA,000319.00,5445.5069845,N,00628.3684968,W,2,16,0.67,75.7416,M,0.0,M,0.0,*59
$GPGGA,000320.00,5445.5069841,N,00628.3684976,W,2,16,0.67,75.7395,M,0.0,M,0.0,*54
$GPGGA,000321.00,5445.5069837,N,00628.3684978,W,2,16,0.67,75.7395,M,0.0,M,0.0,*5A
$GPGGA,000322.00,5445.5069836,N,00628.3685012,W,2,16,0.67,75.7392,M,0.0,M,0.0,*5B
$GPGGA,000323.00,5445.5069840,N,00628.3685089,W,2,16,0.67,75.7396,M,0.0,M,0.0,*5D
$GPGGA,000324.00,5445.5069847,N,00628.3685175,W,2,16,0.67,75.7446,M,0.0,M,0.0,*55
$GPGGA,000325.00,5445.5069860,N,00628.3685238,W,2,16,0.67,75.7493,M,0.0,M,0.0,*53
$GPGGA,000326.00,5445.5069869,N,00628.3685289,W,2,16,0.67,75.7527,M,0.0,M,0.0,*5D
$GPGGA,000327.00,5445.5069873,N,00628.3685310,W,2,16,0.67,75.7572,M,0.0,M,0.0,*56
$GPGGA,000328.00,5445.5069871,N,00628.3685343,W,2,16,0.67,75.7604,M,0.0,M,0.0,*5F
$GPGGA,000329.00,5445.5069872,N,00628.3685394,W,2,16,0.67,75.7654,M,0.0,M,0.0,*52
$GPGGA,000330.00,5445.5069877,N,00628.3685453,W,2,16,0.67,75.7708,M,0.0,M,0.0,*5B
$GPGGA,000331.00,5445.5069881,N,00628.3685516,W,2,16,0.67,75.7807,M,0.0,M,0.0,*53
$GPGGA,000332.00,5445.5069891,N,00628.3685582,W,2,16,0.67,75.7916,M,0.0,M,0.0,*5D
$GPGGA,000333.00,5445.5069901,N,00628.3685662,W,2,16,0.67,75.7996,M,0.0,M,0.0,*51
$GPGGA,000334.00,5445.5069913,N,00628.3685716,W,2,16,0.67,75.8080,M,0.0,M,0.0,*56
$GPGGA,000335.00,5445.5069915,N,00628.3685748,W,2,16,0.67,75.8179,M,0.0,M,0.0,*5D
$GPGGA,000336.00,5445.5069902,N,00628.3685759,W,2,16,0.67,75.8288,M,0.0,M,0.0,*55
$GPGGA,000337.00,5445.5069882,N,00628.3685750,W,2,16,0.67,75.8425,M,0.0,M,0.0,*55
$GPGGA,000338.00,5445.5069857,N,00628.3685744,W,2,16,0.67,75.8569,M,0.0,M,0.0,*5E
$GPGGA,000339.00,5445.5069828,N,00628.3685735,W,2,16,0.67,75.8719,M,0.0,M,0.0,*54
$GPGGA,000340.00,5445.5069797,N,00628.3685722,W,2,16,0.67,75.8874,M,0.0,M,0.0,*53
$GPGGA,000341.00,5445.5069771,N,00628.3685705,W,2,16,0.67,75.9033,M,0.0,M,0.0,*55
$GPGGA,000342.00,5445.5069755,N,00628.3685665,W,2,16,0.67,75.9169,M,0.0,M,0.0,*59
$GPGGA,000343.00,5445.5069733,N,00628.3685631,W,2,16,0.67,75.9309,M,0.0,M,0.0,*5D
$GPGGA,000344.00,5445.5069709,N,00628.3685608,W,2,16,0.67,75.9428,M,0.0,M,0.0,*5D
$GPGGA,000345.00,5445.5069676,N,00628.3685583,W,2,16,0.67,75.9527,M,0.0,M,0.0,*5B
$GPGGA,000346.00,5445.5069645,N,00628.3685578,W,2,16,0.67,75.9625,M,0.0,M,0.0,*5D
$GPGGA,000347.00,5445.5069618,N,00628.3685561,W,2,16,0.67,75.9714,M,0.0,M,0.0,*5F
$GPGGA,000348.00,5445.5069589,N,00628.3685545,W,2,16,0.67,75.9838,M,0.0,M,0.0,*5C
$GPGGA,000349.00,5445.5069574,N,00628.3685536,W,2,16,0.67,75.9928,M,0.0,M,0.0,*5B
$GPGGA,000350.00,5445.5069559,N,00628.3685547,W,2,16,0.67,76.0003,M,0.0,M,0.0,*50
$GPGGA,000351.00,5445.5069543,N,00628.3685544,W,2,16,0.67,76.0073,M,0.0,M,0.0,*5E
$GPGGA,000352.00,5445.5069531,N,00628.3685530,W,2,16,0.67,76.0087,M,0.0,M,0.0,*50
$GPGGA,000353.00,5445.5069508,N,00628.3685507,W,2,16,0.67,76.0114,M,0.0,M,0.0,*54
$GPGGA,000354.00,5445.5069497,N,00628.3685493,W,2,16,0.67,76.0122,M,0.0,M,0.0,*5D
$GPGGA,000355.00,5445.5069489,N,00628.3685502,W,2,16,0.67,76.0121,M,0.0,M,0.0,*59
$GPGGA,000356.00,5445.5069488,N,00628.3685530,W,2,16,0.67,76.0128,M,0.0,M,0.0,*53
$GPGGA,000357.00,5445.5069489,N,00628.3685558,W,2,16,0.67,76.0178,M,0.0,M,0.0,*58
$GPGGA,000358.00,5445.5069487,N,00628.3685599,W,2,16,0.67,76.0203,M,0.0,M,0.0,*5B
$GPGGA,000359.00,5445.5069492,N,00628.3685626,W,2,16,0.67,76.0170,M,0.0,M,0.0,*5E
$GPGGA,000400.00,5445.5069495,N,00628.3685637,W,2,16,0.67,76.0090,M,0.0,M,0.0,*5D
$GPGGA,000401.00,5445.5069495,N,00628.3685650,W,2,16,0.67,75.9979,M,0.0,M,0.0,*59
$GPGGA,000402.00,5445.5069496,N,00628.3685637,W,2,16,0.67,75.9888,M,0.0,M,0.0,*57
$GPGGA,000403.00,5445.5069498,N,00628.3685621,W,2,16,0.67,75.9829,M,0.0,M,0.0,*54
$GPGGA,000404.00,5445.5069494,N,00628.3685603,W,2,16,0.67,75.9819,M,0.0,M,0.0,*5C
$GPGGA,000405.00,5445.5069489,N,00628.3685601,W,2,16,0.67,75.9776,M,0.0,M,0.0,*55
$GPGGA,000406.00,5445.5069477,N,00628.3685592,W,2,16,0.67,75.9774,M,0.0,M,0.0,*5C
$GPGGA,000407.00,5445.5069462,N,00628.3685581,W,2,16,0.67,75.9786,M,0.0,M,0.0,*56
$GPGGA,000408.00,5445.5069447,N,00628.3685584,W,2,16,0.67,75.9812,M,0.0,M,0.0,*59
$GPGGA,000409.00,5445.5069435,N,00628.3685565,W,2,16,0.67,75.9826,M,0.0,M,0.0,*55
$GPGGA,000410.00,5445.5069429,N,00628.3685561,W,2,16,0.67,75.9827,M,0.0,M,0.0,*55
$GPGGA,000411.00,5445.5069424,N,00628.3685548,W,2,16,0.67,75.9857,M,0.0,M,0.0,*55
$GPGGA,000412.00,5445.5069424,N,00628.3685524,W,2,16,0.67,75.9879,M,0.0,M,0.0,*50
$GPGGA,000413.00,5445.5069429,N,00628.3685505,W,2,16,0.67,75.9936,M,0.0,M,0.0,*55
$GPGGA,000414.00,5445.5069428,N,00628.3685481,W,2,16,0.67,76.0013,M,0.0,M,0.0,*5A
$GPGGA,000415.00,5445.5069424,N,00628.3685461,W,2,16,0.67,76.0084,M,0.0,M,0.0,*57
$GPGGA,000416.00,5445.5069412,N,00628.3685448,W,2,16,0.67,76.0162,M,0.0,M,0.0,*53
$GPGGA,000417.00,5445.5069401,N,00628.3685418,W,2,16,0.67,76.0245,M,0.0,M,0.0,*53
$GPGGA,000418.00,5445.5069391,N,00628.3685373,W,2,16,0.67,76.0306,M,0.0,M,0.0,*5E
$GPGGA,000419.00,5445.5069384,N,00628.3685319,W,2,16,0.67,76.0360,M,0.0,M,0.0,*57
$GPGGA,000420.00,5445.5069375,N,00628.3685265,W,2,16,0.67,76.0419,M,0.0,M,0.0,*50
$GPGGA,000421.00,5445.5069368,N,00628.3685225,W,2,16,0.67,76.0496,M,0.0,M,0.0,*5E
$GPGGA,000422.00,5445.5069362,N,00628.3685205,W,2,16,0.67,76.0570,M,0.0,M,0.0,*5C
$GPGGA,000423.00,5445.5069358,N,00628.3685162,W,2,16,0.67,76.0667,M,0.0,M,0.0,*53
$GPGGA,000424.00,5445.5069348,N,00628.3685111,W,2,16,0.67,76.0765,M,0.0,M,0.0,*52
$GPGGA,000425.00,5445.5069337,N,00628.3685055,W,2,16,0.67,76.0836,M,0.0,M,0.0,*53
$GPGGA,000426.00,5445.5069321,N,00628.3684987,W,2,16,0.67,76.0919,M,0.0,M,0.0,*5C
$GPGGA,000427.00,5445.5069308,N,00628.3684918,W,2,16,0.67,76.0979,M,0.0,M,0.0,*56
$GPGGA,000428.00,5445.5069295,N,00628.3684836,W,2,16,0.67,76.1051,M,0.0,M,0.0,*53
$GPGGA,000429.00,5445.5069291,N,00628.3684756,W,2,16,0.67,76.1110,M,0.0,M,0.0,*5B
$GPGGA,000430.00,5445.5069283,N,00628.3684682,W,2,16,0.67,76.1169,M,0.0,M,0.0,*56
$GPGGA,000431.00,5445.5069278,N,00628.3684616,W,2,16,0.67,76.1234,M,0.0,M,0.0,*55
$GPGGA,000432.00,5445.5069277,N,00628.3684572,W,2,16,0.67,76.1253,M,0.0,M,0.0,*59
$GPGGA,000433.00,5445.5069272,N,00628.3684540,W,2,16,0.67,76.1276,M,0.0,M,0.0,*5B
$GPGGA,000434.00,5445.5069268,N,00628.3684499,W,2,16,0.67,76.1303,M,0.0,M,0.0,*51
$GPGGA,000435.00,5445.5069266,N,00628.3684431,W,2,16,0.67,76.1330,M,0.0,M,0.0,*5C
$GPGGA,000436.00,5445.5069265,N,00628.3684358,W,2,16,0.67,76.1371,M,0.0,M,0.0,*51
$GPGGA,000437.00,5445.5069270,N,00628.3684311,W,2,16,0.67,76.1403,M,0.0,M,0.0,*5B
$GPGGA,000438.00,5445.5069280,N,00628.3684295,W,2,16,0.67,76.1408,M,0.0,M,0.0,*5D
$GPGGA,000439.00,5445.5069285,N,00628.3684268,W,2,16,0.67,76.1403,M,0.0,M,0.0,*50
$GPGGA,000440.00,5445.5069287,N,00628.3684256,W,2,16,0.67,76.1403,M,0.0,M,0.0,*51
$GPGGA,000441.00,5445.5069285,N,00628.3684244,W,2,16,0.67,76.1398,M,0.0,M,0.0,*54
$GPGGA,000442.00,5445.5069289,N,00628.3684236,W,2,16,0.67,76.1384,M,0.0,M,0.0,*53
$GPGGA,000443.00,5445.5069288,N,00628.3684242,W,2,16,0.67,76.1392,M,0.0,M,0.0,*57
$GPGGA,000444.00,5445.5069286,N,00628.3684233,W,2,16,0.67,76.1387,M,0.0,M,0.0,*5C
$GPGGA,000445.00,5445.5069284,N,00628.3684227,W,2,16,0.67,76.1394,M,0.0,M,0.0,*58
$GPGGA,000446.00,5445.5069282,N,00628.3684231,W,2,16,0.67,76.1383,M,0.0,M,0.0,*5C
$GPGGA,000447.00,5445.5069281,N,00628.3684244,W,2,16,0.67,76.1366,M,0.0,M,0.0,*57
$GPGGA,000448.00,5445.5069273,N,00628.3684265,W,2,16,0.67,76.1351,M,0.0,M,0.0,*52
$GPGGA,000449.00,5445.5069268,N,00628.3684301,W,2,16,0.67,76.1335,M,0.0,M,0.0,*58
$GPGGA,000450.00,5445.5069259,N,00628.3684333,W,2,16,0.67,76.1318,M,0.0,M,0.0,*5C
$GPGGA,000451.00,5445.5069245,N,00628.3684363,W,2,16,0.67,76.1308,M,0.0,M,0.0,*54
$GPGGA,000452.00,5445.5069226,N,00628.3684385,W,2,16,0.67,76.1313,M,0.0,M,0.0,*50
$GPGGA,000453.00,5445.5069206,N,00628.3684396,W,2,16,0.67,76.1330,M,0.0,M,0.0,*50
$GPGGA,000454.00,5445.5069184,N,00628.3684427,W,2,16,0.67,76.1359,M,0.0,M,0.0,*5C
$GPGGA,000455.00,5445.5069171,N,00628.3684462,W,2,16,0.67,76.1361,M,0.0,M,0.0,*5D
$GPGGA,000456.00,5445.5069162,N,00628.3684488,W,2,16,0.67,76.1370,M,0.0,M,0.0,*58
$GPGGA,000457.00,5445.5069151,N,00628.3684486,W,2,16,0.67,76.1377,M,0.0,M,0.0,*50
$GPGGA,000458.00,5445.5069143,N,00628.3684480,W,2,16,0.67,76.1367,M,0.0,M,0.0,*5B
$GPGGA,000459.00,5445.5069138,N,00628.3684481,W,2,16,0.67,76.1371,M,0.0,M,0.0,*50
$GPGGA,000500.00,5445.5069134,N,00628.3684491,W,2,16,0.67,76.1351,M,0.0,M,0.0,*52
$GPGGA,000501.00,5445.5069131,N,00628.3684506,W,2,16,0.67,76.1338,M,0.0,M,0.0,*56
$GPGGA,000502.00,5445.5069125,N,00628.3684507,W,2,16,0.67,76.1350,M,0.0,M,0.0,*5F
$GPGGA,000503.00,5445.5069120,N,00628.3684522,W,2,16,0.67,76.1369,M,0.0,M,0.0,*56
$GPGGA,000504.00,5445.5069113,N,00628.3684523,W,2,16,0.67,76.1387,M,0.0,M,0.0,*50
$GPGGA,000505.00,5445.5069103,N,00628.3684517,W,2,16,0.67,76.1415,M,0.0,M,0.0,*5B
$GPGGA,000506.00,5445.5069089,N,00628.3684499,W,2,16,0.67,76.1441,M,0.0,M,0.0,*5D
$GPGGA,000507.00,5445.5069077,N,00628.3684480,W,2,16,0.67,76.1447,M,0.0,M,0.0,*53
$GPGGA,000508.00,5445.5069072,N,00628.3684476,W,2,16,0.67,76.1464,M,0.0,M,0.0,*51
$GPGGA,000509.00,5445.5069073,N,00628.3684471,W,2,16,0.67,76.1478,M,0.0,M,0.0,*5B
$GPGGA,000510.00,5445.5069076,N,00628.3684452,W,2,16,0.67,76.1470,M,0.0,M,0.0,*5F
$GPGGA,000511.00,5445.5069081,N,00628.3684439,W,2,16,0.67,76.1456,M,0.0,M,0.0,*5F
$GPGGA,000512.00,5445.5069080,N,00628.3684421,W,2,16,0.67,76.1429,M,0.0,M,0.0,*5C
$GPGGA,000513.00,5445.5069081,N,00628.3684414,W,2,16,0.67,76.1390,M,0.0,M,0.0,*5F
$GPGGA,000514.00,5445.5069080,N,00628.3684399,W,2,16,0.67,76.1354,M,0.0,M,0.0,*53
$GPGGA,000515.00,5445.5069077,N,00628.3684388,W,2,16,0.67,76.1332,M,0.0,M,0.0,*5A
$GPGGA,000516.00,5445.5069080,N,00628.3684385,W,2,16,0.67,76.1351,M,0.0,M,0.0,*59
$GPGGA,000517.00,5445.5069089,N,00628.3684390,W,2,16,0.67,76.1370,M,0.0,M,0.0,*56
$GPGGA,000518.00,5445.5069098,N,00628.3684401,W,2,16,0.67,76.1398,M,0.0,M,0.0,*50
$GPGGA,000519.00,5445.5069111,N,00628.3684403,W,2,16,0.67,76.1395,M,0.0,M,0.0,*5E
$GPGGA,000520.00,5445.5069122,N,00628.3684398,W,2,16,0.67,76.1395,M,0.0,M,0.0,*51
$GPGGA,000521.00,5445.5069136,N,00628.3684400,W,2,16,0.67,76.1386,M,0.0,M,0.0,*51
$GPGGA,000522.00,5445.5069148,N,00628.3684423,W,2,16,0.67,76.1358,M,0.0,M,0.0,*59
$GPGGA,000523.00,5445.5069160,N,00628.3684452,W,2,16,0.67,76.1336,M,0.0,M,0.0,*5C
$GPGGA,000524.00,5445.5069175,N,00628.3684476,W,2,16,0.67,76.1305,M,0.0,M,0.0,*59
$GPGGA,000525.00,5445.5069182,N,00628.3684486,W,2,16,0.67,76.1278,M,0.0,M,0.0,*54
$GPGGA,000526.00,5445.5069186,N,00628.3684479,W,2,16,0.67,76.1265,M,0.0,M,0.0,*5F
$GPGGA,000527.00,5445.5069188,N,00628.3684479,W,2,16,0.67,76.1258,M,0.0,M,0.0,*5E
$GPGGA,000528.00,5445.5069190,N,00628.3684487,W,2,16,0.67,76.1243,M,0.0,M,0.0,*53
$GPGGA,000529.00,5445.5069192,N,00628.3684492,W,2,16,0.67,76.1226,M,0.0,M,0.0,*57
$GPGGA,000530.00,5445.5069198,N,00628.3684493,W,2,16,0.67,76.1186,M,0.0,M,0.0,*5D
$GPGGA,000531.00,5445.5069201,N,00628.3684490,W,2,16,0.67,76.1155,M,0.0,M,0.0,*52
$GPGGA,000532.00,5445.5069209,N,00628.3684491,W,2,16,0.67,76.1118,M,0.0,M,0.0,*51
$GPGGA,000533.00,5445.5069217,N,00628.3684491,W,2,16,0.67,76.1064,M,0.0,M,0.0,*55
$GPGGA,000534.00,5445.5069227,N,00628.3684499,W,2,16,0.67,76.1007,M,0.0,M,0.0,*5C
$GPGGA,000535.00,5445.5069237,N,00628.3684507,W,2,16,0.67,76.0950,M,0.0,M,0.0,*50
$GPGGA,000536.00,5445.5069244,N,00628.3684516,W,2,16,0.67,76.0896,M,0.0,M,0.0,*5C
$GPGGA,000537.00,5445.5069250,N,00628.3684520,W,2,16,0.67,76.0851,M,0.0,M,0.0,*56
$GPGGA,000538.00,5445.5069254,N,00628.3684517,W,2,16,0.67,76.0820,M,0.0,M,0.0,*5F
$GPGGA,000539.00,5445.5069259,N,00628.3684519,W,2,16,0.67,76.0781,M,0.0,M,0.0,*59
$GPGGA,000540.00,5445.5069262,N,00628.3684515,W,2,16,0.67,76.0751,M,0.0,M,0.0,*5E
$GPGGA,000541.00,5445.5069262,N,00628.3684496,W,2,16,0.67,76.0722,M,0.0,M,0.0,*51
$GPGGA,000542.00,5445.5069261,N,00628.3684475,W,2,16,0.67,76.0697,M,0.0,M,0.0,*53
$GPGGA,000543.00,5445.5069259,N,00628.3684447,W,2,16,0.67,76.0703,M,0.0,M,0.0,*54
$GPGGA,000544.00,5445.5069260,N,00628.3684408,W,2,16,0.67,76.0715,M,0.0,M,0.0,*55
$GPGGA,000545.00,5445.5069256,N,00628.3684368,W,2,16,0.67,76.0738,M,0.0,M,0.0,*5F
$GPGGA,000546.00,5445.5069252,N,00628.3684329,W,2,16,0.67,76.0761,M,0.0,M,0.0,*51
$GPGGA,000547.00,5445.5069255,N,00628.3684306,W,2,16,0.67,76.0767,M,0.0,M,0.0,*5C
$GPGGA,000548.00,5445.5069260,N,00628.3684291,W,2,16,0.67,76.0754,M,0.0,M,0.0,*5A
$GPGGA,000549.00,5445.5069267,N,00628.3684282,W,2,16,0.67,76.0721,M,0.0,M,0.0,*5C
$GPGGA,000550.00,5445.5069269,N,00628.3684271,W,2,16,0.67,76.0698,M,0.0,M,0.0,*55
$GPGGA,000551.00,5445.5069271,N,00628.3684261,W,2,16,0.67,76.0676,M,0.0,M,0.0,*5C
$GPGGA,000552.00,5445.5069268,N,00628.3684252,W,2,16,0.67,76.0674,M,0.0,M,0.0,*55
$GPGGA,000553.00,5445.5069261,N,00628.3684257,W,2,16,0.67,76.0666,M,0.0,M,0.0,*5B
$GPGGA,000554.00,5445.5069253,N,00628.3684254,W,2,16,0.67,76.0648,M,0.0,M,0.0,*52
$GPGGA,000555.00,5445.5069252,N,00628.3684234,W,2,16,0.67,76.0631,M,0.0,M,0.0,*5A
$GPGGA,000556.00,5445.5069253,N,00628.3684225,W,2,16,0.67,76.0607,M,0.0,M,0.0,*5D
$GPGGA,000557.00,5445.5069256,N,00628.3684213,W,2,16,0.67,76.0579,M,0.0,M,0.0,*56
$GPGGA,000558.00,5445.5069261,N,00628.3684200,W,2,16,0.67,76.0547,M,0.0,M,0.0,*52
$GPGGA,000559.00,5445.5069268,N,00628.3684179,W,2,16,0.67,76.0527,M,0.0,M,0.0,*51
$GPGGA,000600.00,5445.5069276,N,00628.3684170,W,2,16,0.67,76.0512,M,0.0,M,0.0,*5E
$GPGGA,000601.00,5445.5069283,N,00628.3684172,W,2,16,0.67,76.0498,M,0.0,M,0.0,*54
$GPGGA,000602.00,5445.5069284,N,00628.3684174,W,2,16,0.67,76.0498,M,0.0,M,0.0,*56
$GPGGA,000603.00,5445.5069290,N,00628.3684185,W,2,16,0.67,76.0481,M,0.0,M,0.0,*54
$GPGGA,000604.00,5445.5069296,N,00628.3684199,W,2,16,0.67,76.0459,M,0.0,M,0.0,*5D
$GPGGA,000605.00,5445.5069302,N,00628.3684203,W,2,16,0.67,76.0446,M,0.0,M,0.0,*5E
$GPGGA,000606.00,5445.5069304,N,00628.3684197,W,2,16,0.67,76.0432,M,0.0,M,0.0,*56
$GPGGA,000607.00,5445.5069306,N,00628.3684186,W,2,16,0.67,76.0434,M,0.0,M,0.0,*53
$GPGGA,000608.00,5445.5069308,N,00628.3684171,W,2,16,0.67,76.0433,M,0.0,M,0.0,*5D
$GPGGA,000609.00,5445.5069308,N,00628.3684158,W,2,16,0.67,76.0423,M,0.0,M,0.0,*56
$GPGGA,000610.00,5445.5069311,N,00628.3684148,W,2,16,0.67,76.0411,M,0.0,M,0.0,*56
$GPGGA,000611.00,5445.5069310,N,00628.3684138,W,2,16,0.67,76.0399,M,0.0,M,0.0,*56
$GPGGA,000612.00,5445.5069308,N,00628.3684121,W,2,16,0.67,76.0383,M,0.0,M,0.0,*5F
$GPGGA,000613.00,5445.5069302,N,00628.3684092,W,2,16,0.67,76.0383,M,0.0,M,0.0,*5D
$GPGGA,000614.00,5445.5069300,N,00628.3684076,W,2,16,0.67,76.0374,M,0.0,M,0.0,*5A
$GPGGA,000615.00,5445.5069299,N,00628.3684061,W,2,16,0.67,76.0364,M,0.0,M,0.0,*5D
$GPGGA,000616.00,5445.5069298,N,00628.3684045,W,2,16,0.67,76.0359,M,0.0,M,0.0,*57
$GPGGA,000617.00,5445.5069297,N,00628.3684016,W,2,16,0.67,76.0349,M,0.0,M,0.0,*5E
$GPGGA,000618.00,5445.5069296,N,00628.3683990,W,2,16,0.67,76.0334,M,0.0,M,0.0,*5A
$GPGGA,000619.00,5445.5069296,N,00628.3683956,W,2,16,0.67,76.0340,M,0.0,M,0.0,*52
$GPGGA,000620.00,5445.5069293,N,00628.3683933,W,2,16,0.67,76.0352,M,0.0,M,0.0,*5D
$GPGGA,000621.00,5445.5069290,N,00628.3683910,W,2,16,0.67,76.0376,M,0.0,M,0.0,*58
$GPGGA,000622.00,5445.5069283,N,00628.3683891,W,2,16,0.67,76.0413,M,0.0,M,0.0,*55
$GPGGA,000623.00,5445.5069273,N,00628.3683881,W,2,16,0.67,76.0457,M,0.0,M,0.0,*5A
$GPGGA,000624.00,5445.5069257,N,00628.3683884,W,2,16,0.67,76.0504,M,0.0,M,0.0,*59
$GPGGA,000625.00,5445.5069236,N,00628.3683881,W,2,16,0.67,76.0552,M,0.0,M,0.0,*59
$GPGGA,000626.00,5445.5069215,N,00628.3683872,W,2,16,0.67,76.0587,M,0.0,M,0.0,*5F
$GPGGA,000627.00,5445.5069198,N,00628.3683856,W,2,16,0.67,76.0621,M,0.0,M,0.0,*51
$GPGGA,000628.00,5445.5069180,N,00628.3683836,W,2,16,0.67,76.0657,M,0.0,M,0.0,*50
$GPGGA,000629.00,5445.5069167,N,00628.3683810,W,2,16,0.67,76.0708,M,0.0,M,0.0,*57
$GPGGA,000630.00,5445.5069157,N,00628.3683796,W,2,16,0.67,76.0747,M,0.0,M,0.0,*56
$GPGGA,000631.00,5445.5069153,N,00628.3683779,W,2,16,0.67,76.0780,M,0.0,M,0.0,*59
$GPGGA,000632.00,5445.5069146,N,00628.3683763,W,2,16,0.67,76.0819,M,0.0,M,0.0,*5A
$GPGGA,000633.00,5445.5069135,N,00628.3683755,W,2,16,0.67,76.0859,M,0.0,M,0.0,*5E
$GPGGA,000634.00,5445.5069122,N,00628.3683740,W,2,16,0.67,76.0898,M,0.0,M,0.0,*56
$GPGGA,000635.00,5445.5069106,N,00628.3683730,W,2,16,0.67,76.0919,M,0.0,M,0.0,*5E
$GPGGA,000636.00,5445.5069089,N,00628.3683715,W,2,16,0.67,76.0926,M,0.0,M,0.0,*50
$GPGGA,000637.00,5445.5069075,N,00628.3683706,W,2,16,0.67,76.0940,M,0.0,M,0.0,*50
$GPGGA,000638.00,5445.5069068,N,00628.3683697,W,2,16,0.67,76.0931,M,0.0,M,0.0,*5C
$GPGGA,000639.00,5445.5069068,N,00628.3683678,W,2,16,0.67,76.0934,M,0.0,M,0.0,*59
$GPGGA,000640.00,5445.5069068,N,00628.3683660,W,2,16,0.67,76.0937,M,0.0,M,0.0,*5D
$GPGGA,000641.00,5445.5069070,N,00628.3683645,W,2,16,0.67,76.0936,M,0.0,M,0.0,*53
$GPGGA,000642.00,5445.5069071,N,00628.3683636,W,2,16,0.67,76.0935,M,0.0,M,0.0,*56
$GPGGA,000643.00,5445.5069071,N,00628.3683635,W,2,16,0.67,76.0947,M,0.0,M,0.0,*51
$GPGGA,000644.00,5445.5069070,N,00628.3683633,W,2,16,0.67,76.0975,M,0.0,M,0.0,*50
$GPGGA,000645.00,5445.5069065,N,00628.3683621,W,2,16,0.67,76.0990,M,0.0,M,0.0,*5D
$GPGGA,000646.00,5445.5069063,N,00628.3683610,W,2,16,0.67,76.0987,M,0.0,M,0.0,*5C
$GPGGA,000647.00,5445.5069063,N,00628.3683601,W,2,16,0.67,76.0981,M,0.0,M,0.0,*5B
$GPGGA,000648.00,5445.5069062,N,00628.3683588,W,2,16,0.67,76.0978,M,0.0,M,0.0,*51
$GPGGA,000649.00,5445.5069058,N,00628.3683561,W,2,16,0.67,76.0985,M,0.0,M,0.0,*5C
$GPGGA,000650.00,5445.5069054,N,00628.3683523,W,2,16,0.67,76.1008,M,0.0,M,0.0,*53
$GPGGA,000651.00,5445.5069046,N,00628.3683492,W,2,16,0.67,76.1045,M,0.0,M,0.0,*53
$GPGGA,000652.00,5445.5069041,N,00628.3683472,W,2,16,0.67,76.1071,M,0.0,M,0.0,*5E
$GPGGA,000653.00,5445.5069034,N,00628.3683453,W,2,16,0.67,76.1104,M,0.0,M,0.0,*5D
$GPGGA,000654.00,5445.5069025,N,00628.3683432,W,2,16,0.67,76.1136,M,0.0,M,0.0,*5C
$GPGGA,000655.00,5445.5069019,N,00628.3683408,W,2,16,0.67,76.1160,M,0.0,M,0.0,*58
$GPGGA,000656.00,5445.5069014,N,00628.3683385,W,2,16,0.67,76.1171,M,0.0,M,0.0,*54
$GPGGA,000657.00,5445.5069009,N,00628.3683373,W,2,16,0.67,76.1163,M,0.0,M,0.0,*53
$GPGGA,000658.00,5445.5069008,N,00628.3683361,W,2,16,0.67,76.1153,M,0.0,M,0.0,*5D
$GPGGA,000659.00,5445.5069005,N,00628.3683338,W,2,16,0.67,76.1155,M,0.0,M,0.0,*5B
$GPGGA,000700.00,5445.5069000,N,00628.3683305,W,2,16,0.67,76.1166,M,0.0,M,0.0,*5D
$GPGGA,000701.00,5445.5068993,N,00628.3683277,W,2,16,0.67,76.1182,M,0.0,M,0.0,*50
$GPGGA,000702.00,5445.5068988,N,00628.3683261,W,2,16,0.67,76.1192,M,0.0,M,0.0,*5F
$GPGGA,000703.00,5445.5068984,N,00628.3683244,W,2,16,0.67,76.1216,M,0.0,M,0.0,*5A
$GPGGA,000704.00,5445.5068982,N,00628.3683224,W,2,16,0.67,76.1241,M,0.0,M,0.0,*5F
$GPGGA,000705.00,5445.5068980,N,00628.3683199,W,2,16,0.67,76.1263,M,0.0,M,0.0,*59
$GPGGA,000706.00,5445.5068979,N,00628.3683184,W,2,16,0.67,76.1279,M,0.0,M,0.0,*5B
$GPGGA,000707.00,5445.5068977,N,00628.3683181,W,2,16,0.67,76.1289,M,0.0,M,0.0,*5E
$GPGGA,000708.00,5445.5068973,N,00628.3683184,W,2,16,0.67,76.1287,M,0.0,M,0.0,*5E
$GPGGA,000709.00,5445.5068964,N,00628.3683177,W,2,16,0.67,76.1285,M,0.0,M,0.0,*57
$GPGGA,000710.00,5445.5068953,N,00628.3683163,W,2,16,0.67,76.1294,M,0.0,M,0.0,*5E
$GPGGA,000711.00,5445.5068949,N,00628.3683156,W,2,16,0.67,76.1300,M,0.0,M,0.0,*5E
$GPGGA,000712.00,5445.5068946,N,00628.3683146,W,2,16,0.67,76.1314,M,0.0,M,0.0,*56
$GPGGA,000713.00,5445.5068940,N,00628.3683131,W,2,16,0.67,76.1333,M,0.0,M,0.0,*54
$GPGGA,000714.00,5445.5068930,N,00628.3683098,W,2,16,0.67,76.1361,M,0.0,M,0.0,*51
$GPGGA,000715.00,5445.5068923,N,00628.3683068,W,2,16,0.67,76.1390,M,0.0,M,0.0,*53
$GPGGA,000716.00,5445.5068918,N,00628.3683053,W,2,16,0.67,76.1416,M,0.0,M,0.0,*59
$GPGGA,000717.00,5445.5068914,N,00628.3683049,W,2,16,0.67,76.1435,M,0.0,M,0.0,*5E
$GPGGA,000718.00,5445.5068907,N,00628.3683048,W,2,16,0.67,76.1446,M,0.0,M,0.0,*56
$GPGGA,000719.00,5445.5068897,N,00628.3683048,W,2,16,0.67,76.1456,M,0.0,M,0.0,*5E
$GPGGA,000720.00,5445.5068892,N,00628.3683046,W,2,16,0.67,76.1470,M,0.0,M,0.0,*5B
$GPGGA,000721.00,5445.5068891,N,00628.3683041,W,2,16,0.67,76.1475,M,0.0,M,0.0,*5B
$GPGGA,000722.00,5445.5068890,N,00628.3683035,W,2,16,0.67,76.1469,M,0.0,M,0.0,*57
$GPGGA,000723.00,5445.5068888,N,00628.3683023,W,2,16,0.67,76.1456,M,0.0,M,0.0,*54
$GPGGA,000724.00,5445.5068889,N,00628.3683012,W,2,16,0.67,76.1446,M,0.0,M,0.0,*51
$GPGGA,000725.00,5445.5068893,N,00628.3683011,W,2,16,0.67,76.1438,M,0.0,M,0.0,*51
$GPGGA,000726.00,5445.5068896,N,00628.3683007,W,2,16,0.67,76.1429,M,0.0,M,0.0,*50
$GPGGA,000727.00,5445.5068901,N,00628.3683007,W,2,16,0.67,76.1428,M,0.0,M,0.0,*5F
$GPGGA,000728.00,5445.5068908,N,00628.3683011,W,2,16,0.67,76.1416,M,0.0,M,0.0,*53
$GPGGA,000729.00,5445.5068913,N,00628.3683019,W,2,16,0.67,76.1412,M,0.0,M,0.0,*54
$GPGGA,000730.00,5445.5068917,N,00628.3683017,W,2,16,0.67,76.1409,M,0.0,M,0.0,*5C
$GPGGA,000731.00,5445.5068919,N,00628.3683005,W,2,16,0.67,76.1407,M,0.0,M,0.0,*5E
$GPGGA,000732.00,5445.5068921,N,00628.3683005,W,2,16,0.67,76.1399,M,0.0,M,0.0,*56
$GPGGA,000733.00,5445.5068923,N,00628.3683007,W,2,16,0.67,76.1396,M,0.0,M,0.0,*58
$GPGGA,000734.00,5445.5068922,N,00628.3683017,W,2,16,0.67,76.1392,M,0.0,M,0.0,*5B
$GPGGA,000735.00,5445.5068919,N,00628.3683025,W,2,16,0.67,76.1390,M,0.0,M,0.0,*51
$GPGGA,000736.00,5445.5068916,N,00628.3683032,W,2,16,0.67,76.1396,M,0.0,M,0.0,*5D
$GPGGA,000737.00,5445.5068913,N,00628.3683041,W,2,16,0.67,76.1394,M,0.0,M,0.0,*5F
$GPGGA,000738.00,5445.5068907,N,00628.3683044,W,2,16,0.67,76.1387,M,0.0,M,0.0,*52
$GPGGA,000739.00,5445.5068900,N,00628.3683042,W,2,16,0.67,76.1387,M,0.0,M,0.0,*52
$GPGGA,000740.00,5445.5068895,N,00628.3683034,W,2,16,0.67,76.1391,M,0.0,M,0.0,*57
$GPGGA,000741.00,5445.5068892,N,00628.3683033,W,2,16,0.67,76.1402,M,0.0,M,0.0,*5B
$GPGGA,000742.00,5445.5068889,N,00628.3683033,W,2,16,0.67,76.1419,M,0.0,M,0.0,*58
$GPGGA,000743.00,5445.5068890,N,00628.3683035,W,2,16,0.67,76.1429,M,0.0,M,0.0,*54
$GPGGA,000744.00,5445.5068890,N,00628.3683034,W,2,16,0.67,76.1434,M,0.0,M,0.0,*5E
$GPGGA,000745.00,5445.5068894,N,00628.3683035,W,2,16,0.67,76.1437,M,0.0,M,0.0,*59
$GPGGA,000746.00,5445.5068895,N,00628.3683039,W,2,16,0.67,76.1435,M,0.0,M,0.0,*55
$GPGGA,000747.00,5445.5068895,N,00628.3683030,W,2,16,0.67,76.1439,M,0.0,M,0.0,*51
$GPGGA,000748.00,5445.5068895,N,00628.3683020,W,2,16,0.67,76.1451,M,0.0,M,0.0,*51
$GPGGA,000749.00,5445.5068892,N,00628.3683015,W,2,16,0.67,76.1463,M,0.0,M,0.0,*50
$GPGGA,000750.00,5445.5068889,N,00628.3683015,W,2,16,0.67,76.1479,M,0.0,M,0.0,*59
$GPGGA,000751.00,5445.5068887,N,00628.3683016,W,2,16,0.67,76.1489,M,0.0,M,0.0,*5A
$GPGGA,000752.00,5445.5068879,N,00628.3683013,W,2,16,0.67,76.1499,M,0.0,M,0.0,*5C
$GPGGA,000753.00,5445.5068871,N,00628.3683005,W,2,16,0.67,76.1513,M,0.0,M,0.0,*51
$GPGGA,000754.00,5445.5068868,N,00628.3683000,W,2,16,0.67,76.1526,M,0.0,M,0.0,*5D
$GPGGA,000755.00,5445.5068866,N,00628.3682998,W,2,16,0.67,76.1536,M,0.0,M,0.0,*5A
$GPGGA,000756.00,5445.5068864,N,00628.3682998,W,2,16,0.67,76.1546,M,0.0,M,0.0,*5C
$GPGGA,000757.00,5445.5068862,N,00628.3682994,W,2,16,0.67,76.1559,M,0.0,M,0.0,*59
$GPGGA,000758.00,5445.5068855,N,00628.3682989,W,2,16,0.67,76.1584,M,0.0,M,0.0,*5E
$GPGGA,000759.00,5445.5068847,N,00628.3682985,W,2,16,0.67,76.1620,M,0.0,M,0.0,*5D
$GPGGA,000800.00,5445.5068838,N,00628.3682982,W,2,16,0.67,76.1648,M,0.0,M,0.0,*5F
$GPGGA,000801.00,5445.5068830,N,00628.3682983,W,2,16,0.67,76.1674,M,0.0,M,0.0,*58
$GPGGA,000802.00,5445.5068827,N,00628.3682983,W,2,16,0.67,76.1688,M,0.0,M,0.0,*5E
$GPGGA,000803.00,5445.5068826,N,00628.3682990,W,2,16,0.67,76.1706,M,0.0,M,0.0,*5B
$GPGGA,000804.00,5445.5068822,N,00628.3682988,W,2,16,0.67,76.1722,M,0.0,M,0.0,*57
$GPGGA,000805.00,5445.5068818,N,00628.3682987,W,2,16,0.67,76.1734,M,0.0,M,0.0,*57
$GPGGA,000806.00,5445.5068814,N,00628.3682985,W,2,16,0.67,76.1751,M,0.0,M,0.0,*59
$GPGGA,000807.00,5445.5068810,N,00628.3682992,W,2,16,0.67,76.1757,M,0.0,M,0.0,*5C
$GPGGA,000808.00,5445.5068806,N,00628.3683001,W,2,16,0.67,76.1764,M,0.0,M,0.0,*56
$GPGGA,000809.00,5445.5068802,N,00628.3683011,W,2,16,0.67,76.1763,M,0.0,M,0.0,*55
$GPGGA,000810.00,5445.5068802,N,00628.3683018,W,2,16,0.67,76.1758,M,0.0,M,0.0,*5C
$GPGGA,000811.00,5445.5068802,N,00628.3683020,W,2,16,0.67,76.1758,M,0.0,M,0.0,*56
$GPGGA,000812.00,5445.5068805,N,00628.3683021,W,2,16,0.67,76.1757,M,0.0,M,0.0,*5C
$GPGGA,000813.00,5445.5068808,N,00628.3683014,W,2,16,0.67,76.1762,M,0.0,M,0.0,*50
$GPGGA,000814.00,5445.5068806,N,00628.3683009,W,2,16,0.67,76.1768,M,0.0,M,0.0,*5F
$GPGGA,000815.00,5445.5068806,N,00628.3683005,W,2,16,0.67,76.1772,M,0.0,M,0.0,*59
$GPGGA,000816.00,5445.5068806,N,00628.3683004,W,2,16,0.67,76.1765,M,0.0,M,0.0,*5D
$GPGGA,000817.00,5445.5068807,N,00628.3682999,W,2,16,0.67,76.1759,M,0.0,M,0.0,*5E
$GPGGA,000818.00,5445.5068810,N,00628.3682997,W,2,16,0.67,76.1746,M,0.0,M,0.0,*57
$GPGGA,000819.00,5445.5068816,N,00628.3682998,W,2,16,0.67,76.1739,M,0.0,M,0.0,*57
$GPGGA,000820.00,5445.5068825,N,00628.3683004,W,2,16,0.67,76.1728,M,0.0,M,0.0,*50
$GPGGA,000821.00,5445.5068832,N,00628.3683011,W,2,16,0.67,76.1713,M,0.0,M,0.0,*5B
$GPGGA,000822.00,5445.5068839,N,00628.3683014,W,2,16,0.67,76.1695,M,0.0,M,0.0,*59
$GPGGA,000823.00,5445.5068841,N,00628.3683017,W,2,16,0.67,76.1683,M,0.0,M,0.0,*53
$GPGGA,000824.00,5445.5068842,N,00628.3683018,W,2,16,0.67,76.1658,M,0.0,M,0.0,*5E
$GPGGA,000825.00,5445.5068845,N,00628.3683002,W,2,16,0.67,76.1652,M,0.0,M,0.0,*59
$GPGGA,000826.00,5445.5068845,N,00628.3682985,W,2,16,0.67,76.1659,M,0.0,M,0.0,*56
$GPGGA,000827.00,5445.5068845,N,00628.3682969,W,2,16,0.67,76.1669,M,0.0,M,0.0,*56
$GPGGA,000828.00,5445.5068846,N,00628.3682960,W,2,16,0.67,76.1668,M,0.0,M,0.0,*52
$GPGGA,000829.00,5445.5068844,N,00628.3682952,W,2,16,0.67,76.1667,M,0.0,M,0.0,*5F
$GPGGA,000830.00,5445.5068838,N,00628.3682946,W,2,16,0.67,76.1658,M,0.0,M,0.0,*55
$GPGGA,000831.00,5445.5068835,N,00628.3682941,W,2,16,0.67,76.1657,M,0.0,M,0.0,*51
$GPGGA,000832.00,5445.5068836,N,00628.3682938,W,2,16,0.67,76.1641,M,0.0,M,0.0,*58
$GPGGA,000833.00,5445.5068841,N,00628.3682932,W,2,16,0.67,76.1622,M,0.0,M,0.0,*56
$GPGGA,000834.00,5445.5068845,N,00628.3682924,W,2,16,0.67,76.1607,M,0.0,M,0.0,*55
$GPGGA,000835.00,5445.5068852,N,00628.3682919,W,2,16,0.67,76.1596,M,0.0,M,0.0,*57
$GPGGA,000836.00,5445.5068857,N,00628.3682913,W,2,16,0.67,76.1589,M,0.0,M,0.0,*55
$GPGGA,000837.00,5445.5068862,N,00628.3682911,W,2,16,0.67,76.1588,M,0.0,M,0.0,*51
$GPGGA,000838.00,5445.5068867,N,00628.3682905,W,2,16,0.67,76.1585,M,0.0,M,0.0,*53
$GPGGA,000839.00,5445.5068868,N,00628.3682887,W,2,16,0.67,76.1587,M,0.0,M,0.0,*54
$GPGGA,000840.00,5445.5068864,N,00628.3682866,W,2,16,0.67,76.1593,M,0.0,M,0.0,*5C
$GPGGA,000841.00,5445.5068862,N,00628.3682855,W,2,16,0.67,76.1595,M,0.0,M,0.0,*5D
$GPGGA,000842.00,5445.5068860,N,00628.3682843,W,2,16,0.67,76.1600,M,0.0,M,0.0,*54
$GPGGA,000843.00,5445.5068863,N,00628.3682823,W,2,16,0.67,76.1612,M,0.0,M,0.0,*53
$GPGGA,000844.00,5445.5068865,N,00628.3682801,W,2,16,0.67,76.1634,M,0.0,M,0.0,*56
$GPGGA,000845.00,5445.5068866,N,00628.3682771,W,2,16,0.67,76.1665,M,0.0,M,0.0,*58
$GPGGA,000846.00,5445.5068872,N,00628.3682746,W,2,16,0.67,76.1687,M,0.0,M,0.0,*56
$GPGGA,000847.00,5445.5068875,N,00628.3682723,W,2,16,0.67,76.1701,M,0.0,M,0.0,*5C
$GPGGA,000848.00,5445.5068872,N,00628.3682702,W,2,16,0.67,76.1699,M,0.0,M,0.0,*57
$GPGGA,000849.00,5445.5068874,N,00628.3682676,W,2,16,0.67,76.1696,M,0.0,M,0.0,*5D
$GPGGA,000850.00,5445.5068876,N,00628.3682649,W,2,16,0.67,76.1696,M,0.0,M,0.0,*5B
$GPGGA,000851.00,5445.5068878,N,00628.3682633,W,2,16,0.67,76.1698,M,0.0,M,0.0,*57
$GPGGA,000852.00,5445.5068875,N,00628.3682615,W,2,16,0.67,76.1708,M,0.0,M,0.0,*55
$GPGGA,000853.00,5445.5068871,N,00628.3682586,W,2,16,0.67,76.1726,M,0.0,M,0.0,*55
$GPGGA,000854.00,5445.5068865,N,00628.3682559,W,2,16,0.67,76.1748,M,0.0,M,0.0,*5D
$GPGGA,000855.00,5445.5068859,N,00628.3682542,W,2,16,0.67,76.1768,M,0.0,M,0.0,*5B
$GPGGA,000856.00,5445.5068852,N,00628.3682533,W,2,16,0.67,76.1786,M,0.0,M,0.0,*55
$GPGGA,000857.00,5445.5068845,N,00628.3682526,W,2,16,0.67,76.1796,M,0.0,M,0.0,*57
$GPGGA,000858.00,5445.5068842,N,00628.3682526,W,2,16,0.67,76.1799,M,0.0,M,0.0,*50
$GPGGA,000859.00,5445.5068843,N,00628.3682526,W,2,16,0.67,76.1794,M,0.0,M,0.0,*5D
$GPGGA,000900.00,5445.5068842,N,00628.3682524,W,2,16,0.67,76.1789,M,0.0,M,0.0,*5F
$GPGGA,000901.00,5445.5068842,N,00628.3682515,W,2,16,0.67,76.1780,M,0.0,M,0.0,*55
$GPGGA,000902.00,5445.5068841,N,00628.3682505,W,2,16,0.67,76.1766,M,0.0,M,0.0,*5C
$GPGGA,000903.00,5445.5068843,N,00628.3682491,W,2,16,0.67,76.1752,M,0.0,M,0.0,*54
$GPGGA,000904.00,5445.5068846,N,00628.3682485,W,2,16,0.67,76.1738,M,0.0,M,0.0,*5F
$GPGGA,000905.00,5445.5068850,N,00628.3682481,W,2,16,0.67,76.1734,M,0.0,M,0.0,*51
$GPGGA,000906.00,5445.5068855,N,00628.3682475,W,2,16,0.67,76.1731,M,0.0,M,0.0,*59
$GPGGA,000907.00,5445.5068855,N,00628.3682470,W,2,16,0.67,76.1734,M,0.0,M,0.0,*58
$GPGGA,000908.00,5445.5068850,N,00628.3682458,W,2,16,0.67,76.1742,M,0.0,M,0.0,*59
$GPGGA,000909.00,5445.5068849,N,00628.3682446,W,2,16,0.67,76.1752,M,0.0,M,0.0,*5E
$GPGGA,000910.00,5445.5068848,N,00628.3682437,W,2,16,0.67,76.1769,M,0.0,M,0.0,*59
$GPGGA,000911.00,5445.5068848,N,00628.3682427,W,2,16,0.67,76.1778,M,0.0,M,0.0,*59
$GPGGA,000912.00,5445.5068848,N,00628.3682420,W,2,16,0.67,76.1772,M,0.0,M,0.0,*57
$GPGGA,000913.00,5445.5068850,N,00628.3682421,W,2,16,0.67,76.1765,M,0.0,M,0.0,*58
$GPGGA,000914.00,5445.5068851,N,00628.3682419,W,2,16,0.67,76.1747,M,0.0,M,0.0,*55
$GPGGA,000915.00,5445.5068849,N,00628.3682420,W,2,16,0.67,76.1725,M,0.0,M,0.0,*53
$GPGGA,000916.00,5445.5068848,N,00628.3682422,W,2,16,0.67,76.1708,M,0.0,M,0.0,*5C
$GPGGA,000917.00,5445.5068851,N,00628.3682421,W,2,16,0.67,76.1690,M,0.0,M,0.0,*56
$GPGGA,000918.00,5445.5068856,N,00628.3682418,W,2,16,0.67,76.1675,M,0.0,M,0.0,*5F
$GPGGA,000919.00,5445.5068858,N,00628.3682420,W,2,16,0.67,76.1656,M,0.0,M,0.0,*5A
$GPGGA,000920.00,5445.5068863,N,00628.3682422,W,2,16,0.67,76.1636,M,0.0,M,0.0,*5C
$GPGGA,000921.00,5445.5068868,N,00628.3682424,W,2,16,0.67,76.1618,M,0.0,M,0.0,*5C
$GPGGA,000922.00,5445.5068875,N,00628.3682433,W,5,16,0.67,76.1592,M,0.0,M,0.0,*53
$GPGGA,000923.00,5445.5068884,N,00628.3682438,W,5,16,0.67,76.1569,M,0.0,M,0.0,*53
$GPGGA,000924.00,5445.5068890,N,00628.3682439,W,5,16,0.67,76.1549,M,0.0,M,0.0,*52
$GPGGA,000925.00,5445.5068890,N,00628.3682444,W,5,16,0.67,76.1530,M,0.0,M,0.0,*57
$GPGGA,000926.00,5445.5068888,N,00628.3682453,W,5,16,0.67,76.1502,M,0.0,M,0.0,*5A
$GPGGA,000927.00,5445.5068887,N,00628.3682462,W,5,16,0.67,76.1480,M,0.0,M,0.0,*5D
$GPGGA,000928.00,5445.5068883,N,00628.3682470,W,5,16,0.67,76.1467,M,0.0,M,0.0,*5C
$GPGGA,000929.00,5445.5068880,N,00628.3682476,W,5,16,0.67,76.1471,M,0.0,M,0.0,*5F
$GPGGA,000930.00,5445.5068882,N,00628.3682484,W,5,16,0.67,76.1467,M,0.0,M,0.0,*5F
$GPGGA,000931.00,5445.5068885,N,00628.3682487,W,5,16,0.67,76.1468,M,0.0,M,0.0,*55
$GPGGA,000932.00,5445.5068885,N,00628.3682495,W,5,16,0.67,76.1467,M,0.0,M,0.0,*5A
$GPGGA,000933.00,5445.5068884,N,00628.3682502,W,5,16,0.67,76.1467,M,0.0,M,0.0,*55
$GPGGA,000934.00,5445.5068885,N,00628.3682506,W,5,16,0.67,76.1470,M,0.0,M,0.0,*51
$GPGGA,000935.00,5445.5068884,N,00628.3682503,W,5,16,0.67,76.1470,M,0.0,M,0.0,*54
$GPGGA,000936.00,5445.5068885,N,00628.3682506,W,5,16,0.67,76.1456,M,0.0,M,0.0,*57
$GPGGA,000937.00,5445.5068885,N,00628.3682508,W,5,16,0.67,76.1452,M,0.0,M,0.0,*5C
$GPGGA,000938.00,5445.5068889,N,00628.3682508,W,5,16,0.67,76.1454,M,0.0,M,0.0,*59
$GPGGA,000939.00,5445.5068887,N,00628.3682494,W,5,16,0.67,76.1462,M,0.0,M,0.0,*57
$GPGGA,000940.00,5445.5068886,N,00628.3682483,W,5,16,0.67,76.1474,M,0.0,M,0.0,*59
$GPGGA,000941.00,5445.5068882,N,00628.3682467,W,5,16,0.67,76.1490,M,0.0,M,0.0,*5C
$GPGGA,000942.00,5445.5068878,N,00628.3682458,W,5,16,0.67,76.1511,M,0.0,M,0.0,*5E
$GPGGA,000943.00,5445.5068877,N,00628.3682438,W,5,16,0.67,76.1539,M,0.0,M,0.0,*5C
$GPGGA,000944.00,5445.5068872,N,00628.3682425,W,5,16,0.67,76.1581,M,0.0,M,0.0,*51
$GPGGA,000945.00,5445.5068865,N,00628.3682416,W,5,16,0.67,76.1618,M,0.0,M,0.0,*55
$GPGGA,000946.00,5445.5068861,N,00628.3682403,W,5,16,0.67,76.1651,M,0.0,M,0.0,*5B
$GPGGA,000947.00,5445.5068858,N,00628.3682395,W,5,16,0.67,76.1681,M,0.0,M,0.0,*55
$GPGGA,000948.00,5445.5068856,N,00628.3682378,W,5,16,0.67,76.1707,M,0.0,M,0.0,*58
$GPGGA,000949.00,5445.5068852,N,00628.3682363,W,5,16,0.67,76.1733,M,0.0,M,0.0,*50
$GPGGA,000950.00,5445.5068848,N,00628.3682354,W,5,16,0.67,76.1759,M,0.0,M,0.0,*5B
$GPGGA,000951.00,5445.5068844,N,00628.3682338,W,5,16,0.67,76.1796,M,0.0,M,0.0,*5F
$GPGGA,000952.00,5445.5068842,N,00628.3682325,W,5,16,0.67,76.1843,M,0.0,M,0.0,*51
$GPGGA,000953.00,5445.5068839,N,00628.3682312,W,5,16,0.67,76.1902,M,0.0,M,0.0,*5C
$GPGGA,000954.00,5445.5068836,N,00628.3682299,W,5,16,0.67,76.1963,M,0.0,M,0.0,*51
$GPGGA,000955.00,5445.5068831,N,00628.3682293,W,5,16,0.67,76.2011,M,0.0,M,0.0,*52
$GPGGA,000956.00,5445.5068823,N,00628.3682288,W,5,16,0.67,76.2064,M,0.0,M,0.0,*5A
$GPGGA,000957.00,5445.5068819,N,00628.3682287,W,5,16,0.67,76.2113,M,0.0,M,0.0,*5C
$GPGGA,000958.00,5445.5068817,N,00628.3682279,W,5,16,0.67,76.2158,M,0.0,M,0.0,*53
$GPGGA,000959.00,5445.5068816,N,00628.3682269,W,5,16,0.67,76.2198,M,0.0,M,0.0,*5E
$GPGGA,001000.00,5445.5068817,N,00628.3682258,W,5,16,0.67,76.2224,M,0.0,M,0.0,*5D
$GPGGA,001001.00,5445.5068818,N,00628.3682243,W,5,16,0.67,76.2249,M,0.0,M,0.0,*52
$GPGGA,001002.00,5445.5068819,N,00628.3682228,W,5,16,0.67,76.2261,M,0.0,M,0.0,*57
$GPGGA,001003.00,5445.5068819,N,00628.3682212,W,5,16,0.67,76.2267,M,0.0,M,0.0,*59
$GPGGA,001004.00,5445.5068819,N,00628.3682197,W,5,16,0.67,76.2283,M,0.0,M,0.0,*5A
$GPGGA,001005.00,5445.5068816,N,00628.3682187,W,5,16,0.67,76.2302,M,0.0,M,0.0,*5D
$GPGGA,001006.00,5445.5068814,N,00628.3682181,W,5,16,0.67,76.2315,M,0.0,M,0.0,*5C
$GPGGA,001007.00,5445.5068811,N,00628.3682174,W,5,16,0.67,76.2319,M,0.0,M,0.0,*5E
$GPGGA,001008.00,5445.5068807,N,00628.3682162,W,5,16,0.67,76.2327,M,0.0,M,0.0,*5C
$GPGGA,001009.00,5445.5068804,N,00628.3682158,W,5,16,0.67,76.2329,M,0.0,M,0.0,*59
$GPGGA,001010.00,5445.5068801,N,00628.3682151,W,5,16,0.67,76.2337,M,0.0,M,0.0,*52
$GPGGA,001011.00,5445.5068802,N,00628.3682148,W,5,16,0.67,76.2336,M,0.0,M,0.0,*59
$GPGGA,001012.00,5445.5068801,N,00628.3682139,W,5,16,0.67,76.2331,M,0.0,M,0.0,*58
$GPGGA,001013.00,5445.5068796,N,00628.3682132,W,5,16,0.67,76.2336,M,0.0,M,0.0,*54
$GPGGA,001014.00,5445.5068795,N,00628.3682124,W,5,16,0.67,76.2350,M,0.0,M,0.0,*57
$GPGGA,001015.00,5445.5068790,N,00628.3682117,W,5,16,0.67,76.2366,M,0.0,M,0.0,*56
$GPGGA,001016.00,5445.5068784,N,00628.3682111,W,5,16,0.67,76.2384,M,0.0,M,0.0,*5A
$GPGGA,001017.00,5445.5068779,N,00628.3682109,W,5,16,0.67,76.2399,M,0.0,M,0.0,*5C
$GPGGA,001018.00,5445.5068773,N,00628.3682097,W,5,16,0.67,76.2415,M,0.0,M,0.0,*5C
$GPGGA,001019.00,5445.5068769,N,00628.3682095,W,5,16,0.67,76.2440,M,0.0,M,0.0,*54
$GPGGA,001020.00,5445.5068766,N,00628.3682092,W,5,16,0.67,76.2456,M,0.0,M,0.0,*51
$GPGGA,001021.00,5445.5068765,N,00628.3682088,W,5,16,0.67,76.2478,M,0.0,M,0.0,*54
$GPGGA,001022.00,5445.5068760,N,00628.3682089,W,5,16,0.67,76.2489,M,0.0,M,0.0,*5D
$GPGGA,001023.00,5445.5068758,N,00628.3682089,W,5,16,0.67,76.2494,M,0.0,M,0.0,*5B
$GPGGA,001024.00,5445.5068757,N,00628.3682097,W,5,16,0.67,76.2496,M,0.0,M,0.0,*5E
$GPGGA,001025.00,5445.5068761,N,00628.3682104,W,5,16,0.67,76.2488,M,0.0,M,0.0,*5E
$GPGGA,001026.00,5445.5068767,N,00628.3682106,W,5,16,0.67,76.2480,M,0.0,M,0.0,*51
$GPGGA,001027.00,5445.5068773,N,00628.3682107,W,5,16,0.67,76.2479,M,0.0,M,0.0,*52
$GPGGA,001028.00,5445.5068779,N,00628.3682110,W,5,16,0.67,76.2481,M,0.0,M,0.0,*56
$GPGGA,001029.00,5445.5068783,N,00628.3682115,W,5,16,0.67,76.2484,M,0.0,M,0.0,*52
$GPGGA,001030.00,5445.5068786,N,00628.3682113,W,5,16,0.67,76.2479,M,0.0,M,0.0,*5B
$GPGGA,001031.00,5445.5068787,N,00628.3682111,W,5,16,0.67,76.2461,M,0.0,M,0.0,*50
$GPGGA,001032.00,5445.5068787,N,00628.3682109,W,5,16,0.67,76.2445,M,0.0,M,0.0,*5C
$GPGGA,001033.00,5445.5068790,N,00628.3682111,W,5,16,0.67,76.2434,M,0.0,M,0.0,*54
$GPGGA,001034.00,5445.5068790,N,00628.3682116,W,5,16,0.67,76.2425,M,0.0,M,0.0,*54
$GPGGA,001035.00,5445.5068790,N,00628.3682117,W,5,16,0.67,76.2420,M,0.0,M,0.0,*51
$GPGGA,001036.00,5445.5068791,N,00628.3682116,W,5,16,0.67,76.2417,M,0.0,M,0.0,*56
$GPGGA,001037.00,5445.5068792,N,00628.3682116,W,5,16,0.67,76.2416,M,0.0,M,0.0,*55
$GPGGA,001038.00,5445.5068793,N,00628.3682116,W,5,16,0.67,76.2420,M,0.0,M,0.0,*5E
$GPGGA,001039.00,5445.5068792,N,00628.3682106,W,5,16,0.67,76.2422,M,0.0,M,0.0,*5D
$GPGGA,001040.00,5445.5068795,N,00628.3682100,W,5,16,0.67,76.2429,M,0.0,M,0.0,*59
$GPGGA,001041.00,5445.5068797,N,00628.3682093,W,5,16,0.67,76.2437,M,0.0,M,0.0,*5E
$GPGGA,001042.00,5445.5068801,N,00628.3682093,W,5,16,0.67,76.2439,M,0.0,M,0.0,*53
$GPGGA,001043.00,5445.5068804,N,00628.3682091,W,5,16,0.67,76.2444,M,0.0,M,0.0,*5F
$GPGGA,001044.00,5445.5068806,N,00628.3682091,W,5,16,0.67,76.2435,M,0.0,M,0.0,*5C
$GPGGA,001045.00,5445.5068805,N,00628.3682090,W,5,16,0.67,76.2420,M,0.0,M,0.0,*5B
$GPGGA,001046.00,5445.5068805,N,00628.3682096,W,5,16,0.67,76.2409,M,0.0,M,0.0,*55
$GPGGA,001047.00,5445.5068798,N,00628.3682109,W,5,16,0.67,76.2406,M,0.0,M,0.0,*57
$GPGGA,001048.00,5445.5068794,N,00628.3682111,W,5,16,0.67,76.2404,M,0.0,M,0.0,*5F
$GPGGA,001049.00,5445.5068787,N,00628.3682110,W,5,16,0.67,76.2395,M,0.0,M,0.0,*52
$GPGGA,001050.00,5445.5068782,N,00628.3682110,W,5,16,0.67,76.2392,M,0.0,M,0.0,*58
$GPGGA,001051.00,5445.5068779,N,00628.3682110,W,5,16,0.67,76.2394,M,0.0,M,0.0,*5B
$GPGGA,001052.00,5445.5068780,N,00628.3682110,W,5,16,0.67,76.2386,M,0.0,M,0.0,*5D
$GPGGA,001053.00,5445.5068784,N,00628.3682103,W,5,16,0.67,76.2389,M,0.0,M,0.0,*55
$GPGGA,001054.00,5445.5068789,N,00628.3682100,W,5,16,0.67,76.2386,M,0.0,M,0.0,*53
$GPGGA,001055.00,5445.5068796,N,00628.3682100,W,5,16,0.67,76.2386,M,0.0,M,0.0,*5C
$GPGGA,001056.00,5445.5068799,N,00628.3682097,W,5,16,0.67,76.2386,M,0.0,M,0.0,*5F
$GPGGA,001057.00,5445.5068804,N,00628.3682094,W,5,16,0.67,76.2380,M,0.0,M,0.0,*50
$GPGGA,001058.00,5445.5068807,N,00628.3682092,W,5,16,0.67,76.2375,M,0.0,M,0.0,*50
$GPGGA,001059.00,5445.5068808,N,00628.3682091,W,5,16,0.67,76.2366,M,0.0,M,0.0,*5F
$GPGGA,001100.00,5445.5068809,N,00628.3682089,W,5,16,0.67,76.2364,M,0.0,M,0.0,*58
$GPGGA,001101.00,5445.5068814,N,00628.3682094,W,5,16,0.67,76.2365,M,0.0,M,0.0,*58
$GPGGA,001102.00,5445.5068817,N,00628.3682102,W,5,16,0.67,76.2361,M,0.0,M,0.0,*52
$GPGGA,001103.00,5445.5068821,N,00628.3682108,W,5,16,0.67,76.2362,M,0.0,M,0.0,*5F
$GPGGA,001104.00,5445.5068823,N,00628.3682114,W,5,16,0.67,76.2356,M,0.0,M,0.0,*50
$GPGGA,001105.00,5445.5068824,N,00628.3682115,W,5,16,0.67,76.2342,M,0.0,M,0.0,*52
$GPGGA,001106.00,5445.5068824,N,00628.3682114,W,5,16,0.67,76.2315,M,0.0,M,0.0,*52
$GPGGA,001107.00,5445.5068823,N,00628.3682122,W,5,16,0.67,76.2288,M,0.0,M,0.0,*54
$GPGGA,001108.00,5445.5068823,N,00628.3682127,W,5,16,0.67,76.2273,M,0.0,M,0.0,*5A
$GPGGA,001109.00,5445.5068824,N,00628.3682130,W,5,16,0.67,76.2274,M,0.0,M,0.0,*5D
$GPGGA,001110.00,5445.5068828,N,00628.3682125,W,5,16,0.67,76.2290,M,0.0,M,0.0,*57
$GPGGA,001111.00,5445.5068828,N,00628.3682114,W,5,16,0.67,76.2308,M,0.0,M,0.0,*54
$GPGGA,001112.00,5445.5068828,N,00628.3682104,W,5,16,0.67,76.2321,M,0.0,M,0.0,*5D
$GPGGA,001113.00,5445.5068827,N,00628.3682091,W,5,16,0.67,76.2326,M,0.0,M,0.0,*59
$GPGGA,001114.00,5445.5068825,N,00628.3682085,W,5,16,0.67,76.2332,M,0.0,M,0.0,*5C
$GPGGA,001115.00,5445.5068822,N,00628.3682073,W,5,16,0.67,76.2342,M,0.0,M,0.0,*54
$GPGGA,001116.00,5445.5068821,N,00628.3682067,W,5,16,0.67,76.2348,M,0.0,M,0.0,*5B
$GPGGA,001117.00,5445.5068818,N,00628.3682060,W,5,16,0.67,76.2352,M,0.0,M,0.0,*5C
$GPGGA,001118.00,5445.5068818,N,00628.3682059,W,5,16,0.67,76.2346,M,0.0,M,0.0,*5C
$GPGGA,001119.00,5445.5068820,N,00628.3682063,W,5,16,0.67,76.2337,M,0.0,M,0.0,*59
$GPGGA,001120.00,5445.5068822,N,00628.3682066,W,5,16,0.67,76.2331,M,0.0,M,0.0,*52
$GPGGA,001121.00,5445.5068822,N,00628.3682073,W,5,16,0.67,76.2317,M,0.0,M,0.0,*53
$GPGGA,001122.00,5445.5068821,N,00628.3682079,W,5,16,0.67,76.2304,M,0.0,M,0.0,*5B
$GPGGA,001123.00,5445.5068822,N,00628.3682086,W,5,16,0.67,76.2296,M,0.0,M,0.0,*53
$GPGGA,001124.00,5445.5068830,N,00628.3682095,W,5,16,0.67,76.2284,M,0.0,M,0.0,*56
$GPGGA,001125.00,5445.5068838,N,00628.3682096,W,5,16,0.67,76.2277,M,0.0,M,0.0,*50
$GPGGA,001126.00,5445.5068848,N,00628.3682100,W,5,16,0.67,76.2277,M,0.0,M,0.0,*5A
$GPGGA,001127.00,5445.5068859,N,00628.3682100,W,5,16,0.67,76.2275,M,0.0,M,0.0,*59
$GPGGA,001128.00,5445.5068866,N,00628.3682108,W,5,16,0.67,76.2268,M,0.0,M,0.0,*5E
$GPGGA,001129.00,5445.5068871,N,00628.3682111,W,5,16,0.67,76.2265,M,0.0,M,0.0,*5C
$GPGGA,001130.00,5445.5068872,N,00628.3682116,W,5,16,0.67,76.2257,M,0.0,M,0.0,*51
$GPGGA,001131.00,5445.5068870,N,00628.3682119,W,5,16,0.67,76.2253,M,0.0,M,0.0,*59
$GPGGA,001132.00,5445.5068866,N,00628.3682130,W,5,16,0.67,76.2239,M,0.0,M,0.0,*5A
$GPGGA,001133.00,5445.5068865,N,00628.3682145,W,5,16,0.67,76.2233,M,0.0,M,0.0,*50
$GPGGA,001134.00,5445.5068868,N,00628.3682153,W,5,16,0.67,76.2225,M,0.0,M,0.0,*5A
$GPGGA,001135.00,5445.5068871,N,00628.3682160,W,5,16,0.67,76.2217,M,0.0,M,0.0,*52
$GPGGA,001136.00,5445.5068874,N,00628.3682166,W,5,16,0.67,76.2211,M,0.0,M,0.0,*54
$GPGGA,001137.00,5445.5068879,N,00628.3682163,W,5,16,0.67,76.2220,M,0.0,M,0.0,*5F
$GPGGA,001138.00,5445.5068882,N,00628.3682164,W,5,16,0.67,76.2234,M,0.0,M,0.0,*56
$GPGGA,001139.00,5445.5068886,N,00628.3682168,W,5,16,0.67,76.2243,M,0.0,M,0.0,*5F
$GPGGA,001140.00,5445.5068890,N,00628.3682166,W,5,16,0.67,76.2255,M,0.0,M,0.0,*5F
$GPGGA,001141.00,5445.5068888,N,00628.3682169,W,5,16,0.67,76.2259,M,0.0,M,0.0,*54
$GPGGA,001142.00,5445.5068888,N,00628.3682170,W,5,16,0.67,76.2264,M,0.0,M,0.0,*51
$GPGGA,001143.00,5445.5068882,N,00628.3682171,W,5,16,0.67,76.2271,M,0.0,M,0.0,*5F
$GPGGA,001144.00,5445.5068878,N,00628.3682173,W,5,16,0.67,76.2282,M,0.0,M,0.0,*53
$GPGGA,001145.00,5445.5068876,N,00628.3682177,W,5,16,0.67,76.2297,M,0.0,M,0.0,*5C
$GPGGA,001146.00,5445.5068872,N,00628.3682179,W,5,16,0.67,76.2318,M,0.0,M,0.0,*53
$GPGGA,001147.00,5445.5068869,N,00628.3682182,W,5,16,0.67,76.2341,M,0.0,M,0.0,*50
$GPGGA,001148.00,5445.5068866,N,00628.3682180,W,5,16,0.67,76.2366,M,0.0,M,0.0,*57
$GPGGA,001149.00,5445.5068863,N,00628.3682178,W,5,16,0.67,76.2389,M,0.0,M,0.0,*55
$GPGGA,001150.00,5445.5068859,N,00628.3682176,W,5,16,0.67,76.2410,M,0.0,M,0.0,*5D
$GPGGA,001151.00,5445.5068854,N,00628.3682182,W,5,16,0.67,76.2422,M,0.0,M,0.0,*5B
$GPGGA,001152.00,5445.5068851,N,00628.3682188,W,5,16,0.67,76.2422,M,0.0,M,0.0,*57
